~VERSION INFORMATION 
VERS.            2.0: LAS LOG ASCII STANDARD VERSION 2.0 
WRAP.             NO: ONE LINE PER DEPTH STEP 
~WELL INFORMATION 
#MNEM.UNIT     DATA                   DESCRIPTION    



















#------------------------------------------------
STRT.F      20.5000                    : 
STOP.F    17459.5000                    : 
STEP.F       0.5000                    : 
NULL.       -999.25                    : 
WELL.        R & J Sparks #1-8              : WELL NAME       
LONG.        0.0000000                      : LONGITUDE       
LAT.         0.0000000                      : LATITUDE        
STAT.        Michigan                       : STATE           
CNTY.        Gratiot                        : COUNTY          
PROS.        29739                          : PROSPECT        
API.         2105729739                     : API NUMBER      
DATE.        07-09-74                       : DATE            
OPER.        McClure Oil Co.                : OPERATOR        
~CURVE INFORMATION 
#MNEM.UNIT     API CODE               CURVE DESCRIPTION
#------------------------------------------------------
DEPT.F                                 : 1 DEPTH
DT  .usec/ft                        : 2 SONIC
RHOB.gm/cc                          : 3 DENSITY3
GR  .API UNITS                      : 4 GAMMA RAY
NPHI.%                              : 5 NEUTRON POR
~PARAMETER INFORMATION 
#MNEM.UNIT     VALUE                  DESCRIPTION
#------------------------------------------------
EKB.F         761.500                 : ELEVATION KB
~A   DEPTH           DT        RHOB          GR        NPHI
# ...
 4844.5000      76.1200      1.7690     19.5000     39.9000
 4845.0000      72.7000      1.8190     22.2000     32.5800
 4845.5000      69.5200      1.9690     25.6500     28.8000
 4846.0000      66.4000      2.1150     28.9500     20.5200
 4846.5000      67.7800      2.1710     37.2000     16.4400
 4847.0000      69.1000      2.1720     35.1000     15.2400
 4847.5000      70.4800      2.1040     33.1500     16.0200
 4848.0000      71.8000      2.0820     31.5000     16.2000
 4848.5000      73.1800      2.2220     29.8500     14.1600
 4849.0000      74.5000      2.2730     28.2000     13.8000
 4849.5000      75.8800      2.3200     31.5000     13.5000
 4850.0000      77.2000      2.3940     34.9500     14.8800
 4850.5000      68.2600      2.4660     38.2500     15.7800
 4851.0000      69.1600      2.5240     40.3500     16.8000
 4851.5000      70.0000      2.5520     42.4500     18.1200
 4852.0000      70.9000      2.5560     44.4000     20.2800
 4852.5000      71.7400      2.5720     46.5000     21.4200
 4853.0000      72.6400      2.5800     46.5000     22.5000
 4853.5000      72.5800      2.5830     46.5000     23.2800
 4854.0000      71.7400      2.5970     45.7500     21.7800
 4854.5000      70.9600      2.6100     45.1500     20.7600
 4855.0000      70.4200      2.6180     46.3500     19.6800
 4855.5000      69.9400      2.6160     42.4500     19.1400
 4856.0000      70.5400      2.6310     40.8000     18.6600
 4856.5000      71.1400      2.6280     39.3000     18.9000
 4857.0000      71.7400      2.6410     39.7500     19.3200
 4857.5000      72.3400      2.6460     40.3500     17.4600
 4858.0000      68.9800      2.6490     40.8000     16.6200
 4858.5000      67.9600      2.6290     39.4500     15.0000
 4859.0000      66.9400      2.6180     38.1000     14.8200
 4859.5000      68.6200      2.5970     39.4500     14.9400
 4860.0000      70.2400      2.6100     42.6000     15.5400
 4860.5000      71.9200      2.6080     43.8000     16.2600
 4861.0000      73.5400      2.6050     45.0000     16.6800
 4861.5000      75.2200      2.6470     45.1500     16.3200
 4862.0000      73.3000      2.6660     45.1500     15.9600
 4862.5000      71.4400      2.6760     45.3000     14.8800
 4863.0000      69.5200      2.6670     42.6000     14.8200
 4863.5000      79.0600      2.6750     41.5500     14.7000
 4864.0000      77.7400      2.6560     40.6500     14.5200
 4864.5000      76.4200      2.6020     42.0000     14.7600
 4865.0000      75.1600      2.5910     43.2000     14.8800
 4865.5000      73.8400      2.5690     42.7500     14.2200
 4866.0000      73.1200      2.5440     42.3000     13.1400
 4866.5000      72.3400      2.5080     41.8500     12.0600
 4867.0000      71.6200      2.4800     45.1500     10.9200
 4867.5000      70.9000      2.4210     47.1000      9.4200
 4868.0000      70.4800      2.3090     48.9000      7.2000
 4868.5000      69.7600      2.2390     41.8500      5.4000
 4869.0000      69.0400      2.1430     34.8000      2.8800
 4869.5000      68.3200      2.0230     34.2000      2.4000
 4870.0000      67.6000      1.9250     27.1500      2.2800
 4870.5000      68.6200      1.8970     21.0000      3.7800
 4871.0000      69.5800      1.9130     15.0000      5.1000
 4871.5000      68.8600      1.9280     16.9500      5.9400
 4872.0000      68.1400      2.0340     18.9000      4.5000
 4872.5000      67.4200      2.0630     19.5000      2.4000
 4873.0000      68.1400      1.9330     20.1000      1.8600
 4873.5000      68.9200      1.8810     17.8500      3.2400
 4874.0000      69.6400      1.8800     15.4500      3.7800
 4874.5000      69.1000      1.8790     13.2000      4.9200
 4875.0000      68.5600      1.8670     10.9500      6.3600
 4875.5000      68.0200      1.8650     11.2500      7.8000
 4876.0000      67.4800      1.8630     11.5500      9.6000
 4876.5000      67.1800      1.9030     11.8500     11.3400
 4877.0000      66.8800      2.0000     13.3500     14.1000
 4877.5000      66.5800      2.0600     14.7000     14.3400
 4878.0000      66.2800      2.1220     16.2000     12.4200
 4878.5000      66.4000      2.1340     17.5500     10.3200
 4879.0000      69.2800      1.9930     16.9500     10.2600
 4879.5000      69.7600      1.9830     16.3500     10.2600
 4880.0000      70.1800      1.9430     15.9000     11.5800
 4880.5000      72.0400      1.9310     15.3000     15.1200
 4881.0000      73.8400      1.9250     16.2000     15.2400
 4881.5000      75.7000      2.0000     17.2500     15.6600
 4882.0000      70.7200      2.0850     18.1500      6.4200
 4882.5000      65.7400      2.1870     21.7500      4.7400
 4883.0000      66.8200      2.2130     22.0500      3.3000
 4883.5000      67.9000      2.1650     22.3500      2.1600
 4884.0000      68.4400      2.1400     22.0500      0.8400
 4884.5000      68.9800      2.1300     21.7500      0.6600
 4885.0000      69.4600      2.1270     21.6000      0.5400
 4885.5000      70.0000      2.0950     21.6000      0.4800
 4886.0000      70.5400      2.0970     18.9000      0.9000
 4886.5000      70.0000      2.0620     16.2000      0.9600
 4887.0000      69.4600      2.0680     13.9500      0.9000
 4887.5000      68.8600      2.0780     13.3500      0.8400
 4888.0000      68.3200      2.0480     12.7500      0.8400
 4888.5000      67.7800      2.0840     12.1500      2.6400
 4889.0000      67.2400      2.1010     12.6000      3.7200
 4889.5000      67.5400      2.1390     13.0500      5.2800
 4890.0000      67.7800      2.1420     13.5000      5.4600
 4890.5000      68.0800      2.1060     13.9500      7.6800
 4891.0000      68.3200      2.0980     12.7500      8.7000
 4891.5000      68.6200      2.0780     13.5000     10.3200
 4892.0000      68.8600      2.0750     14.4000     10.6800
 4892.5000      68.4400      2.0720     15.1500     10.9800
 4893.0000      68.0200      2.1050     15.4500      6.9600
 4893.5000      67.6000      2.1430     15.7500      4.3200
 4894.0000      67.1800      2.1460     16.0500      3.7200
 4894.5000      67.8400      2.0640     15.9000      3.8400
 4895.0000      68.5000      1.9920     15.9000      4.0800
 4895.5000      69.1000      1.9780     15.7500      4.2600
 4896.0000      69.7600      1.9680     15.7500      4.6200
 4896.5000      68.9800      2.0000     15.0000      6.1200
 4897.0000      68.2000      2.0500     14.4000      7.0200
 4897.5000      67.3600      2.0670     13.8000      7.7400
 4898.0000      66.5800      2.0830     14.2500      7.9800
 4898.5000      65.8000      2.0840     14.8500      8.5800
 4899.0000      65.0200      2.1080     15.3000      9.7800
 4899.5000      65.0200      2.1180     15.4500     11.1600
 4900.0000      65.0200      2.1080     15.6000     11.7000
 4900.5000      68.3200      2.0850     14.4000      9.8400
 4901.0000      71.5600      2.0720     13.8000      7.3800
 4901.5000      69.2200      2.1050     14.4000      5.8800
 4902.0000      67.7800      2.1210     15.0000      5.1600
 4902.5000      66.3400      2.0940     15.6000      5.8200
 4903.0000      67.4800      2.0730     16.2000      7.0200
 4903.5000      68.5600      2.0000     15.3000      8.8800
 4904.0000      69.7000      2.0000     14.4000     10.9200
 4904.5000      68.2000      1.9700     13.5000     11.5800
 4905.0000      66.7600      2.0000     14.2500     12.3600
 4905.5000      67.8400      2.0120     15.0000     12.9600
 4906.0000      68.9200      2.0340     15.7500     12.7800
 4906.5000      70.0000      2.0380     16.5000     13.0200
 4907.0000      71.0800      2.0440     17.7000     12.9600
 4907.5000      66.6400      2.0980     18.4500     10.9200
 4908.0000      68.9800      2.1350     19.3500      9.3000
 4908.5000      67.0600      2.0010     20.1000      8.6400
 4909.0000      68.2000      2.0000     18.6000     10.6200
 4909.5000      69.4000      1.9730     18.0000     13.1400
 4910.0000      70.5400      2.0120     17.4000     15.0600
 4910.5000      71.6800      2.0420     17.1000     15.0600
 4911.0000      69.9400      2.0680     16.8000     15.0000
