~VERSION INFORMATION 
VERS.            2.0: LAS LOG ASCII STANDARD VERSION 2.0 
WRAP.             NO: ONE LINE PER DEPTH STEP 
~WELL INFORMATION 
#MNEM.UNIT     DATA                   DESCRIPTION    



















#------------------------------------------------
STRT.F      20.5000                    : 
STOP.F    17459.5000                    : 
STEP.F       0.5000                    : 
NULL.       -999.25                    : 
WELL.        R & J Sparks #1-8              : WELL NAME       
LONG.        0.0000000                      : LONGITUDE       
LAT.         0.0000000                      : LATITUDE        
STAT.        Michigan                       : STATE           
CNTY.        Gratiot                        : COUNTY          
PROS.        29739                          : PROSPECT        
API.         2105729739                     : API NUMBER      
DATE.        07-09-74                       : DATE            
OPER.        McClure Oil Co.                : OPERATOR        
~CURVE INFORMATION 
#MNEM.UNIT     API CODE               CURVE DESCRIPTION
#------------------------------------------------------
DEPT.F                                 : 1 DEPTH
DT  .usec/ft                        : 2 SONIC
RHOB.gm/cc                          : 3 DENSITY3
GR  .API UNITS                      : 4 GAMMA RAY
NPHI.%                              : 5 NEUTRON POR
~PARAMETER INFORMATION 
#MNEM.UNIT     VALUE                  DESCRIPTION
#------------------------------------------------
EKB.F         761.500                 : ELEVATION KB
~A   DEPTH           DT        RHOB          GR        NPHI
# ...
17373.5000      47.9200      2.8310     36.3000   -999.2500
17374.0000      47.9200      2.8520     36.0000   -999.2500
17374.5000      47.9600      2.8390     36.6000   -999.2500
17375.0000      48.1200      2.8240     35.1000   -999.2500
17375.5000      48.0400      2.7980     33.6000   -999.2500
17376.0000      48.1200      2.7970     32.4000   -999.2500
17376.5000      47.9200      2.7680     31.2000   -999.2500
17377.0000      47.7200      2.7780     31.9500   -999.2500
17377.5000      47.5600      2.7660     32.5500   -999.2500
17378.0000      47.3600      2.7730     33.3000   -999.2500
17378.5000      47.4000      2.7990     33.6000   -999.2500
17379.0000      47.4400      2.8450     33.9000   -999.2500
17379.5000      47.5600      2.9340     34.3500   -999.2500
17380.0000      47.6800      2.9180     34.8000   -999.2500
17380.5000      47.7600      2.9000     34.8000   -999.2500
17381.0000      47.8400      2.8690     34.8000   -999.2500
17381.5000      47.9200      2.8390     35.7000   -999.2500
17382.0000      48.0800      2.8570     36.6000   -999.2500
17382.5000      48.3600      2.8250     37.5000   -999.2500
17383.0000      48.6000      2.8140     38.8500   -999.2500
17383.5000      48.7600      2.7960     40.0500   -999.2500
17384.0000      48.8400      2.7810     41.1000   -999.2500
17384.5000      48.8400      2.7510     42.1500   -999.2500
17385.0000      48.8000      2.7160     43.9500   -999.2500
17385.5000      48.7200      2.7040     45.7500   -999.2500
17386.0000      48.6800      2.6930     47.4000   -999.2500
17386.5000      48.9200      2.7510     48.9000   -999.2500
17387.0000      49.2000      2.7820     50.4000   -999.2500
17387.5000      49.4400      2.7550     51.9000   -999.2500
17388.0000      49.8000      2.7150     43.2000   -999.2500
17388.5000      50.1600      2.7200     40.0500   -999.2500
17389.0000      49.6000      2.7240     38.5500   -999.2500
17389.5000      49.0000      2.7070     36.9000   -999.2500
17390.0000      48.4400      2.6860     37.5000   -999.2500
17390.5000      47.5200      2.6510     37.9500   -999.2500
17391.0000      47.7200      2.6260     38.5500   -999.2500
17391.5000      47.8800      2.6020     37.2000   -999.2500
17392.0000      48.3200      2.6270     36.0000   -999.2500
17392.5000      47.9600      2.7030     35.7000   -999.2500
17393.0000      47.6000      2.7660     34.0500   -999.2500
17393.5000      47.3200      2.7990     32.2500   -999.2500
17394.0000      47.0400      2.8560     30.6000   -999.2500
17394.5000      47.0800      2.8290     30.9000   -999.2500
17395.0000      47.3600      2.8030     35.2500   -999.2500
17395.5000      47.6000      2.8250     39.4500   -999.2500
17396.0000      47.9600      2.8360     42.1500   -999.2500
17396.5000      48.2800      2.8020     44.8500   -999.2500
17397.0000      48.2000      2.8160     43.3500   -999.2500
17397.5000      47.8400      2.8310     40.2000   -999.2500
17398.0000      47.4800      2.8420     37.2000   -999.2500
17398.5000      47.4000      2.8980     35.8500   -999.2500
17399.0000      47.2800      2.9140     34.3500   -999.2500
17399.5000      47.2000      2.8710     33.0000   -999.2500
17400.0000      47.4400      2.8620     30.9000   -999.2500
17400.5000      47.7200      2.9120     30.7500   -999.2500
17401.0000      47.9600      2.9030     30.6000   -999.2500
17401.5000      48.2000      2.8930     30.4500   -999.2500
17402.0000      48.4800      2.8830     30.4500   -999.2500
17402.5000      48.7200      2.8920     30.3000   -999.2500
17403.0000      48.9200      2.8990     30.1500   -999.2500
17403.5000      49.1200      2.9280     30.0000   -999.2500
17404.0000      49.3200      2.9360     33.9000   -999.2500
17404.5000      49.5200      2.9920     32.7000   -999.2500
17405.0000      49.7200      2.9510     31.2000   -999.2500
17405.5000      49.8800      2.9720     29.7000   -999.2500
17406.0000      50.0800      2.9920     28.3500   -999.2500
17406.5000      50.2400      2.9150     26.8500   -999.2500
17407.0000      50.4000      2.8970     25.3500   -999.2500
17407.5000      50.5200      2.9140     24.1500   -999.2500
17408.0000      50.6800      2.9170     22.9500   -999.2500
17408.5000      50.8000      2.9200     21.7500   -999.2500
17409.0000      50.3600      2.9250     24.0000   -999.2500
17409.5000      49.9600      2.9330     26.4000   -999.2500
17410.0000      49.6400      2.9480     28.6500   -999.2500
17410.5000      49.5600      2.9530     30.9000   -999.2500
17411.0000      49.5200      2.9570     32.7000   -999.2500
17411.5000      49.4000      2.9490     30.6000   -999.2500
17412.0000      49.4400      2.9420     30.9000   -999.2500
17412.5000      49.6800      2.9620     31.2000   -999.2500
17413.0000      49.9200      2.9420     32.2500   -999.2500
17413.5000      50.1600      2.9500     33.3000   -999.2500
17414.0000      50.5200      2.9310     31.2000   -999.2500
17414.5000      50.6800      2.9020     29.1000   -999.2500
17415.0000      50.8000      2.8840     29.2500   -999.2500
17415.5000      50.6400      2.8950     29.4000   -999.2500
17416.0000      50.5200      2.9060     29.5500   -999.2500
17416.5000      50.0800      2.9200     29.5500   -999.2500
17417.0000      50.2400      2.9310     28.5000   -999.2500
17417.5000      50.3600      2.9480     27.4500   -999.2500
17418.0000      50.5200      2.9540     27.1500   -999.2500
17418.5000      50.5200      2.9590     27.4500   -999.2500
17419.0000      50.5200      2.9290     28.2000   -999.2500
17419.5000      50.6000      2.9280     28.9500   -999.2500
17420.0000      50.6400      2.9280     29.7000   -999.2500
17420.5000      50.5600      2.9090     30.4500   -999.2500
17421.0000      50.5200      2.9170     31.0500   -999.2500
17421.5000      50.3600      2.9160     31.8000   -999.2500
17422.0000      50.2000      2.9150     31.0500   -999.2500
17422.5000      50.3600      2.9400     30.1500   -999.2500
17423.0000      50.4800      2.9620     29.4000   -999.2500
17423.5000      50.6400      2.9490     27.7500   -999.2500
17424.0000      50.7200      2.9440     24.1500   -999.2500
17424.5000      50.8000      2.9390     20.7000   -999.2500
17425.0000      50.8000      2.9050     15.3000   -999.2500
17425.5000      50.6400      2.9310      4.0500   -999.2500
17426.0000      50.4800      2.9320      1.8000   -999.2500
17426.5000      50.2000      2.9440      1.9500   -999.2500
17427.0000      49.8800      2.9490      1.9500   -999.2500
17427.5000      50.2000      2.9540      1.8000   -999.2500
17428.0000      50.2800      2.9450      1.6500   -999.2500
17428.5000      50.3200      2.9360      1.5000   -999.2500
17429.0000      49.8400      2.9380      1.3500   -999.2500
17429.5000      49.5600      2.9210      1.2000   -999.2500
17430.0000      49.2400      2.9490      1.2000   -999.2500
17430.5000      48.6400      2.9420      1.2000   -999.2500
17431.0000      48.7200      2.9520      1.2000   -999.2500
17431.5000      49.3600      2.9390      1.2000   -999.2500
17432.0000      49.4400      2.9610      1.2000   -999.2500
17432.5000      49.8400      2.9520      1.2000   -999.2500
17433.0000      49.8000      2.9190      1.2000   -999.2500
17433.5000      49.8000      2.9110      1.2000   -999.2500
17434.0000      49.7600      2.8940      1.2000   -999.2500
17434.5000      49.5600      2.8840      1.2000   -999.2500
17435.0000      49.3200      2.8580      1.3500   -999.2500
17435.5000      49.1200      2.9070      1.3500   -999.2500
17436.0000      48.8000      2.9150      1.5000   -999.2500
17436.5000      48.4800      2.8870      1.5000   -999.2500
17437.0000      48.8000      2.9120      1.6500   -999.2500
17437.5000      49.0800      2.9020      1.6500   -999.2500
17438.0000      49.4000      2.9230      1.8000   -999.2500
17438.5000      49.5600      2.9270      4.9500   -999.2500
17439.0000      49.6800      2.9110      7.9500   -999.2500
17439.5000      49.3600      2.8990     12.1500   -999.2500
17440.0000      49.1600      2.8820     14.1000   -999.2500
