~VERSION INFORMATION 
VERS.            2.0: LAS LOG ASCII STANDARD VERSION 2.0 
WRAP.             NO: ONE LINE PER DEPTH STEP 
~WELL INFORMATION 
#MNEM.UNIT     DATA                   DESCRIPTION    



















#------------------------------------------------
STRT.F      20.5000                    : 
STOP.F    17459.5000                    : 
STEP.F       0.5000                    : 
NULL.       -999.25                    : 
WELL.        R & J Sparks #1-8              : WELL NAME       
LONG.        0.0000000                      : LONGITUDE       
LAT.         0.0000000                      : LATITUDE        
STAT.        Michigan                       : STATE           
CNTY.        Gratiot                        : COUNTY          
PROS.        29739                          : PROSPECT        
API.         2105729739                     : API NUMBER      
DATE.        07-09-74                       : DATE            
OPER.        McClure Oil Co.                : OPERATOR        
~CURVE INFORMATION 
#MNEM.UNIT     API CODE               CURVE DESCRIPTION
#------------------------------------------------------
DEPT.F                                 : 1 DEPTH
DT  .usec/ft                        : 2 SONIC
RHOB.gm/cc                          : 3 DENSITY3
GR  .API UNITS                      : 4 GAMMA RAY
NPHI.%                              : 5 NEUTRON POR
~PARAMETER INFORMATION 
#MNEM.UNIT     VALUE                  DESCRIPTION
#------------------------------------------------
EKB.F         761.500                 : ELEVATION KB
~A   DEPTH           DT        RHOB          GR        NPHI
# ...
 2566.5000      83.3800      2.4640    105.3000   -999.2500
 2567.0000      79.0000      2.4950     97.9500   -999.2500
 2567.5000      68.4400      2.5120     90.6000   -999.2500
 2568.0000      65.8600      2.5290     83.2500   -999.2500
 2568.5000      63.2800      2.5450     88.2000   -999.2500
 2569.0000      73.6000      2.5060     93.0000   -999.2500
 2569.5000      91.1800      2.4840    114.1500   -999.2500
 2570.0000      93.4600      2.4620    116.7000   -999.2500
 2570.5000      95.7400      2.4490    119.2500   -999.2500
 2571.0000      92.8600      2.4610    123.3000   -999.2500
 2571.5000      91.3000      2.4720    127.2000   -999.2500
 2572.0000      90.3400      2.4400    129.1500   -999.2500
 2572.5000      89.3800      2.4650    131.1000   -999.2500
 2573.0000      89.9200      2.4900    136.8000   -999.2500
 2573.5000      89.5600      2.4790    141.1500   -999.2500
 2574.0000      89.2600      2.4610    144.7500   -999.2500
 2574.5000      88.9000      2.4740    147.7500   -999.2500
 2575.0000      88.6000      2.4700    150.7500   -999.2500
 2575.5000      89.9800      2.4900    153.7500   -999.2500
 2576.0000      89.5000      2.4830    151.9500   -999.2500
 2576.5000      89.0800      2.4770    152.2500   -999.2500
 2577.0000      88.6000      2.4300    152.5500   -999.2500
 2577.5000      89.4400      2.4270    154.0500   -999.2500
 2578.0000      90.2200      2.4010    155.8500   -999.2500
 2578.5000      90.1000      2.3910    157.5000   -999.2500
 2579.0000      89.3800      2.3810    154.3500   -999.2500
 2579.5000      88.7200      2.3880    152.8500   -999.2500
 2580.0000      88.0000      2.3870    152.1000   -999.2500
 2580.5000      89.6200      2.3770    151.3500   -999.2500
 2581.0000      90.5800      2.3680    148.6500   -999.2500
 2581.5000      91.4200      2.3820    141.4500   -999.2500
 2582.0000      92.3200      2.3720    134.2500   -999.2500
 2582.5000      93.2200      2.3940    120.3000   -999.2500
 2583.0000      88.9000      2.4500    112.6500   -999.2500
 2583.5000      83.0800      2.4940    105.1500   -999.2500
 2584.0000      79.1800      2.5160     98.7000   -999.2500
 2584.5000      75.3400      2.5290     92.2500   -999.2500
 2585.0000      79.6600      2.5160     75.9000   -999.2500
 2585.5000      84.0400      2.5300     77.1000   -999.2500
 2586.0000      88.3600      2.5790     78.1500   -999.2500
 2586.5000      93.4600      2.5200     79.3500   -999.2500
 2587.0000      98.5600      2.4630     80.4000   -999.2500
 2587.5000      90.7600      2.4990     77.4000   -999.2500
 2588.0000      83.0200      2.5460     74.4000   -999.2500
 2588.5000      77.7400      2.5720     71.5500   -999.2500
 2589.0000      76.2400      2.5980     68.5500   -999.2500
 2589.5000      74.8000      2.5810     65.5500   -999.2500
 2590.0000      76.5400      2.5850     68.5500   -999.2500
 2590.5000      76.8400      2.5900     71.4000   -999.2500
 2591.0000      77.2000      2.5940     70.5000   -999.2500
 2591.5000      78.1000      2.5630     69.7500   -999.2500
 2592.0000      78.8200      2.5510     68.8500   -999.2500
 2592.5000      79.4800      2.5550     68.1000   -999.2500
 2593.0000      76.3600      2.5590     70.9500   -999.2500
 2593.5000      74.3800      2.5730     73.8000   -999.2500
 2594.0000      72.4000      2.5580     80.4000   -999.2500
 2594.5000      70.4200      2.5790     86.8500   -999.2500
 2595.0000      74.3200      2.5990     96.1500   -999.2500
 2595.5000      78.2200      2.5860    114.6000   -999.2500
 2596.0000      90.7000      2.5050    123.1500   -999.2500
 2596.5000      91.3000      2.4650    132.7500   -999.2500
 2597.0000      94.0600      2.4490    141.1500   -999.2500
 2597.5000      94.3000      2.4300    143.8500   -999.2500
 2598.0000      94.9000      2.4480    146.4000   -999.2500
 2598.5000      96.8200      2.4410    149.1000   -999.2500
 2599.0000      95.9200      2.4350    139.6500   -999.2500
 2599.5000      95.0200      2.4730    149.2500   -999.2500
 2600.0000      94.1800      2.5010    139.5000   -999.2500
 2600.5000      93.2800      2.4670    144.7500   -999.2500
 2601.0000      94.3600      2.4330    149.8500   -999.2500
 2601.5000      95.4400      2.4450    150.1500   -999.2500
 2602.0000     100.0000      2.3920    165.3000   -999.2500
 2602.5000     101.7400      2.3610    180.3000   -999.2500
 2603.0000     103.3000      2.3480    198.7500   -999.2500
 2603.5000     104.8000      2.3040    217.2000   -999.2500
 2604.0000     106.3600      2.2810    235.6500   -999.2500
 2604.5000     104.6800      2.2890    229.6500   -999.2500
 2605.0000     103.6000      2.2660    223.8000   -999.2500
 2605.5000     102.2800      2.2930    217.8000   -999.2500
 2606.0000     102.5800      2.3080    210.4500   -999.2500
 2606.5000     102.9400      2.3230    203.2500   -999.2500
 2607.0000     103.2400      2.2690    190.0500   -999.2500
 2607.5000     101.6800      2.2810    178.8000   -999.2500
 2608.0000     100.7200      2.2940    172.9500   -999.2500
 2608.5000     100.0600      2.3060    167.1000   -999.2500
 2609.0000     100.0000      2.2880    154.9500   -999.2500
 2609.5000     101.0800      2.2980    158.5500   -999.2500
 2610.0000     102.1000      2.3080    162.1500   -999.2500
 2610.5000     100.1200      2.3020    160.2000   -999.2500
 2611.0000     100.1200      2.2900    158.4000   -999.2500
 2611.5000     100.0600      2.2790    156.4500   -999.2500
 2612.0000     100.0600      2.3270    154.6500   -999.2500
 2612.5000     100.5400      2.3130    159.6000   -999.2500
 2613.0000     105.1000      2.2970    164.4000   -999.2500
 2613.5000     105.7000      2.2780    174.6000   -999.2500
 2614.0000     106.2400      2.2560    180.7500   -999.2500
 2614.5000     106.8400      2.2750    186.9000   -999.2500
 2615.0000     106.0000      2.2940    193.0500   -999.2500
 2615.5000     105.2200      2.3180    175.8000   -999.2500
 2616.0000     101.7400      2.3450    167.2500   -999.2500
 2616.5000      99.9400      2.3740    158.7000   -999.2500
 2617.0000      96.7000      2.4020    150.1500   -999.2500
 2617.5000      93.4000      2.4550    150.0000   -999.2500
 2618.0000      90.1600      2.4980    128.7000   -999.2500
 2618.5000      86.9200      2.5430    117.1500   -999.2500
 2619.0000      85.7200      2.5590    105.7500   -999.2500
 2619.5000      84.5200      2.5490     78.4500   -999.2500
 2620.0000      82.2400      2.5340     75.6000   -999.2500
 2620.5000      77.2000      2.5430     72.7500   -999.2500
 2621.0000      69.7000      2.5520     68.7000   -999.2500
 2621.5000      72.0400      2.5350     64.6500   -999.2500
 2622.0000      74.3800      2.5140     68.5500   -999.2500
 2622.5000      76.6600      2.5230     72.4500   -999.2500
 2623.0000      79.0000      2.5320     75.7500   -999.2500
 2623.5000      77.9800      2.5410     79.0500   -999.2500
 2624.0000      76.9600      2.5030     85.2000   -999.2500
 2624.5000      79.0600      2.4880     88.0500   -999.2500
 2625.0000      81.1600      2.4740     91.0500   -999.2500
 2625.5000      87.2800      2.4730     93.9000   -999.2500
 2626.0000      88.4800      2.4730     94.6500   -999.2500
 2626.5000      89.7400      2.4780     95.4000   -999.2500
 2627.0000      90.9400      2.4830     96.1500   -999.2500
 2627.5000      92.1400      2.5020     96.9000   -999.2500
 2628.0000      91.0600      2.5140     92.7000   -999.2500
 2628.5000      89.9800      2.5250     88.5000   -999.2500
 2629.0000      88.6000      2.5000     79.8000   -999.2500
 2629.5000      87.2800      2.5110     76.3500   -999.2500
 2630.0000      86.3200      2.5310     72.4500   -999.2500
 2630.5000      85.4200      2.5500     68.5500   -999.2500
 2631.0000      78.2800      2.5420     70.9500   -999.2500
 2631.5000      82.0000      2.5290     73.3500   -999.2500
 2632.0000      82.8400      2.5450     75.6000   -999.2500
 2632.5000      83.6200      2.5610     78.0000   -999.2500
 2633.0000      84.4600      2.5590     76.2000   -999.2500
