~VERSION INFORMATION 
VERS.            2.0: LAS LOG ASCII STANDARD VERSION 2.0 
WRAP.             NO: ONE LINE PER DEPTH STEP 
~WELL INFORMATION 
#MNEM.UNIT     DATA                   DESCRIPTION    



















#------------------------------------------------
STRT.F      20.5000                    : 
STOP.F    17459.5000                    : 
STEP.F       0.5000                    : 
NULL.       -999.25                    : 
WELL.        R & J Sparks #1-8              : WELL NAME       
LONG.        0.0000000                      : LONGITUDE       
LAT.         0.0000000                      : LATITUDE        
STAT.        Michigan                       : STATE           
CNTY.        Gratiot                        : COUNTY          
PROS.        29739                          : PROSPECT        
API.         2105729739                     : API NUMBER      
DATE.        07-09-74                       : DATE            
OPER.        McClure Oil Co.                : OPERATOR        
~CURVE INFORMATION 
#MNEM.UNIT     API CODE               CURVE DESCRIPTION
#------------------------------------------------------
DEPT.F                                 : 1 DEPTH
DT  .usec/ft                        : 2 SONIC
RHOB.gm/cc                          : 3 DENSITY3
GR  .API UNITS                      : 4 GAMMA RAY
NPHI.%                              : 5 NEUTRON POR
~PARAMETER INFORMATION 
#MNEM.UNIT     VALUE                  DESCRIPTION
#------------------------------------------------
EKB.F         761.500                 : ELEVATION KB
~A   DEPTH           DT        RHOB          GR        NPHI
# ...
15095.5000      58.0800      2.6570    116.8500   -999.2500
15096.0000      57.6800      2.6380    114.6000   -999.2500
15096.5000      57.5200      2.6470    111.9000   -999.2500
15097.0000      57.3600      2.6640    109.5000   -999.2500
15097.5000      57.2000      2.6540    106.8000   -999.2500
15098.0000      57.0400      2.6420    104.8500   -999.2500
15098.5000      56.9600      2.6310    102.9000   -999.2500
15099.0000      56.8800      2.6410    100.8000   -999.2500
15099.5000      56.8000      2.6400     99.1500   -999.2500
15100.0000      56.6800      2.6320     98.1000   -999.2500
15100.5000      56.2400      2.6030     97.0500   -999.2500
15101.0000      56.4800      2.5990    103.3500   -999.2500
15101.5000      56.6800      2.5960    108.3000   -999.2500
15102.0000      56.9200      2.5980    108.6000   -999.2500
15102.5000      57.5600      2.5820    114.7500   -999.2500
15103.0000      58.1600      2.5740    117.6000   -999.2500
15103.5000      58.8000      2.5820    120.4500   -999.2500
15104.0000      59.2000      2.5900    122.1000   -999.2500
15104.5000      59.8400      2.5980    123.6000   -999.2500
15105.0000      59.9200      2.6350    124.2000   -999.2500
15105.5000      59.9600      2.6350    124.8000   -999.2500
15106.0000      59.6000      2.6480    124.6500   -999.2500
15106.5000      59.0800      2.6600    133.5000   -999.2500
15107.0000      59.1200      2.6720    134.7000   -999.2500
15107.5000      59.4000      2.6910    135.7500   -999.2500
15108.0000      59.4400      2.6950    135.6000   -999.2500
15108.5000      59.4800      2.6980    135.6000   -999.2500
15109.0000      59.5600      2.6850    135.4500   -999.2500
15109.5000      59.6000      2.6710    134.2500   -999.2500
15110.0000      59.2800      2.6710    131.1000   -999.2500
15110.5000      59.3600      2.6720    127.9500   -999.2500
15111.0000      59.8000      2.6590    124.8000   -999.2500
15111.5000      60.2000      2.6400    123.3000   -999.2500
15112.0000      60.5600      2.6460    121.8000   -999.2500
15112.5000      60.9200      2.6820    120.3000   -999.2500
15113.0000      59.8800      2.7150    121.5000   -999.2500
15113.5000      59.6000      2.6850    125.2500   -999.2500
15114.0000      59.3600      2.6580    129.0000   -999.2500
15114.5000      60.4800      2.6590    132.7500   -999.2500
15115.0000      60.8800      2.6370    137.8500   -999.2500
15115.5000      61.2800      2.6050    137.5500   -999.2500
15116.0000      61.3600      2.5680    131.2500   -999.2500
15116.5000      61.4000      2.5630    131.5500   -999.2500
15117.0000      60.8000      2.5590    131.8500   -999.2500
15117.5000      60.2400      2.5590    132.1500   -999.2500
15118.0000      59.9600      2.5600    137.4000   -999.2500
15118.5000      59.7200      2.5600    140.7000   -999.2500
15119.0000      59.6400      2.5720    140.4000   -999.2500
15119.5000      59.6000      2.5080    140.1000   -999.2500
15120.0000      59.6000      2.4790    138.0000   -999.2500
15120.5000      59.2400      2.4650    138.6000   -999.2500
15121.0000      58.9200      2.4960    138.7500   -999.2500
15121.5000      59.1600      2.5360    139.0500   -999.2500
15122.0000      59.4400      2.5510    139.2000   -999.2500
15122.5000      59.6800      2.5650    129.1500   -999.2500
15123.0000      60.0000      2.5780    123.4500   -999.2500
15123.5000      59.9200      2.6020    117.6000   -999.2500
15124.0000      59.1200      2.6370    111.9000   -999.2500
15124.5000      58.6400      2.6490    108.9000   -999.2500
15125.0000      58.1200      2.6670    105.9000   -999.2500
15125.5000      56.4800      2.6940    106.2000   -999.2500
15126.0000      56.5600      2.7110    122.8500   -999.2500
15126.5000      57.8400      2.7230    126.3000   -999.2500
15127.0000      59.1200      2.7030    129.6000   -999.2500
15127.5000      60.4000      2.6620    126.6000   -999.2500
15128.0000      60.9200      2.6640    123.3000   -999.2500
15128.5000      60.2400      2.6650    117.4500   -999.2500
15129.0000      59.8800      2.6740    113.5500   -999.2500
15129.5000      58.0400      2.6830    116.8500   -999.2500
15130.0000      58.4800      2.6510    121.2000   -999.2500
15130.5000      58.8800      2.6660    125.4000   -999.2500
15131.0000      59.3200      2.6680    109.3500   -999.2500
15131.5000      59.6800      2.6730     95.4000   -999.2500
15132.0000      57.8800      2.6780     92.4000   -999.2500
15132.5000      57.6000      2.6530     82.6500   -999.2500
15133.0000      56.1600      2.6540     84.4500   -999.2500
15133.5000      55.7200      2.6350     86.1000   -999.2500
15134.0000      55.3200      2.6470     98.4000   -999.2500
15134.5000      55.9600      2.6400    103.0500   -999.2500
15135.0000      57.7200      2.6340    111.3000   -999.2500
15135.5000      59.4800      2.5760    119.4000   -999.2500
15136.0000      60.3200      2.5910    127.6500   -999.2500
15136.5000      61.1600      2.6050    133.0500   -999.2500
15137.0000      60.2800      2.6060    130.2000   -999.2500
15137.5000      59.5600      2.6060    127.3500   -999.2500
15138.0000      59.3600      2.5750    126.1500   -999.2500
15138.5000      59.1600      2.5810    124.9500   -999.2500
15139.0000      59.2800      2.5860    125.8500   -999.2500
15139.5000      59.0800      2.5800    126.7500   -999.2500
15140.0000      58.8400      2.5740    124.2000   -999.2500
15140.5000      58.6400      2.5820    121.5000   -999.2500
15141.0000      58.2800      2.5670    118.9500   -999.2500
15141.5000      57.9200      2.5730    116.4000   -999.2500
15142.0000      57.4400      2.5790    114.0000   -999.2500
15142.5000      57.6400      2.5460    113.7000   -999.2500
15143.0000      57.8800      2.5240    113.4000   -999.2500
15143.5000      58.0800      2.5030    115.2000   -999.2500
15144.0000      58.8400      2.4960    116.8500   -999.2500
15144.5000      59.1600      2.4950    118.6500   -999.2500
15145.0000      59.4400      2.4790    123.7500   -999.2500
15145.5000      59.7600      2.4730    128.7000   -999.2500
15146.0000      60.0400      2.4670    133.8000   -999.2500
15146.5000      60.6800      2.5010    136.8000   -999.2500
15147.0000      61.2800      2.5080    138.9000   -999.2500
15147.5000      60.8000      2.5460    137.1000   -999.2500
15148.0000      61.1200      2.5950    135.3000   -999.2500
15148.5000      61.0000      2.6060    132.3000   -999.2500
15149.0000      60.9200      2.6550    132.3000   -999.2500
15149.5000      60.8000      2.6450    132.3000   -999.2500
15150.0000      60.0000      2.6130    129.9000   -999.2500
15150.5000      60.2000      2.5980    127.5000   -999.2500
15151.0000      60.3600      2.5700    129.4500   -999.2500
15151.5000      60.4800      2.5430    131.2500   -999.2500
15152.0000      60.7600      2.5420    133.2000   -999.2500
15152.5000      61.0000      2.5180    136.0500   -999.2500
15153.0000      61.1600      2.5460    133.8000   -999.2500
15153.5000      61.3200      2.5780    126.3000   -999.2500
15154.0000      60.3600      2.5610    115.3500   -999.2500
15154.5000      59.6000      2.5530    104.5500   -999.2500
15155.0000      58.8800      2.5610     90.9000   -999.2500
15155.5000      56.9600      2.5430     87.7500   -999.2500
15156.0000      55.7200      2.5680     84.7500   -999.2500
15156.5000      56.7600      2.5760     97.8000   -999.2500
15157.0000      57.7600      2.5830    108.1500   -999.2500
15157.5000      59.1600      2.5780    118.5000   -999.2500
15158.0000      60.5200      2.5740    118.8000   -999.2500
15158.5000      61.3200      2.5820    122.7000   -999.2500
15159.0000      61.7200      2.5900    126.7500   -999.2500
15159.5000      62.1200      2.5750    130.6500   -999.2500
15160.0000      61.3600      2.5790    131.5500   -999.2500
15160.5000      61.1600      2.5840    132.4500   -999.2500
15161.0000      61.0000      2.5880    132.9000   -999.2500
15161.5000      61.1200      2.5610    133.2000   -999.2500
15162.0000      61.2400      2.5950    133.6500   -999.2500
