~VERSION INFORMATION 
VERS.            2.0: LAS LOG ASCII STANDARD VERSION 2.0 
WRAP.             NO: ONE LINE PER DEPTH STEP 
~WELL INFORMATION 
#MNEM.UNIT     DATA                   DESCRIPTION    



















#------------------------------------------------
STRT.F      20.5000                    : 
STOP.F    17459.5000                    : 
STEP.F       0.5000                    : 
NULL.       -999.25                    : 
WELL.        R & J Sparks #1-8              : WELL NAME       
LONG.        0.0000000                      : LONGITUDE       
LAT.         0.0000000                      : LATITUDE        
STAT.        Michigan                       : STATE           
CNTY.        Gratiot                        : COUNTY          
PROS.        29739                          : PROSPECT        
API.         2105729739                     : API NUMBER      
DATE.        07-09-74                       : DATE            
OPER.        McClure Oil Co.                : OPERATOR        
~CURVE INFORMATION 
#MNEM.UNIT     API CODE               CURVE DESCRIPTION
#------------------------------------------------------
DEPT.F                                 : 1 DEPTH
DT  .usec/ft                        : 2 SONIC
RHOB.gm/cc                          : 3 DENSITY3
GR  .API UNITS                      : 4 GAMMA RAY
NPHI.%                              : 5 NEUTRON POR
~PARAMETER INFORMATION 
#MNEM.UNIT     VALUE                  DESCRIPTION
#------------------------------------------------
EKB.F         761.500                 : ELEVATION KB
~A   DEPTH           DT        RHOB          GR        NPHI
# ...
 7122.5000      74.9200      2.6920    104.8500     21.8400
 7123.0000      74.7400      2.6980     99.6000     21.0000
 7123.5000      74.6200      2.7120     99.3000     20.4600
 7124.0000      74.4400      2.7020     99.0000     21.0600
 7124.5000      74.2600      2.6980    100.0500     22.0800
 7125.0000      74.6200      2.6940    100.9500     22.6200
 7125.5000      74.9800      2.7070    102.0000     23.2200
 7126.0000      75.3400      2.7040     99.3000     22.0200
 7126.5000      75.7000      2.7030     97.2000     21.9000
 7127.0000      75.2200      2.7030     96.6000     21.9600
 7127.5000      74.8000      2.7330     95.1000     21.3600
 7128.0000      74.3200      2.7300     93.6000     20.7600
 7128.5000      74.0800      2.7260     92.2500     20.5800
 7129.0000      73.7800      2.7140     90.7500     20.4000
 7129.5000      73.5400      2.7530     95.4000     20.2200
 7130.0000      73.2400      2.7270     94.0500     21.0000
 7130.5000      73.0000      2.7430     92.8500     21.2400
 7131.0000      73.1200      2.7450     93.4500     21.4800
 7131.5000      74.0200      2.7460     94.0500     21.4200
 7132.0000      74.9200      2.7480     94.6500     21.3600
 7132.5000      74.6200      2.7150     93.7500     21.6000
 7133.0000      74.3200      2.6950     92.8500     21.6600
 7133.5000      74.0200      2.7090     91.9500     21.1800
 7134.0000      73.7200      2.6910     94.0500     22.4400
 7134.5000      74.9200      2.6760     96.0000     23.2200
 7135.0000      76.0600      2.6780     98.1000     23.9400
 7135.5000      76.6000      2.6790     95.2500     23.8800
 7136.0000      77.0800      2.6650     92.5500     23.8200
 7136.5000      76.3000      2.6440     90.9000     24.6000
 7137.0000      75.5200      2.6210     89.2500     25.0200
 7137.5000      74.7400      2.5790     87.7500     25.4400
 7138.0000      74.9200      2.5690     86.4000     23.1600
 7138.5000      75.6400      2.5760     87.9000     22.0800
 7139.0000      76.3600      2.5580     89.2500     23.3400
 7139.5000      77.0200      2.5150     90.7500     24.4800
 7140.0000      77.7400      2.4410     89.7000     26.5800
 7140.5000      78.4000      2.4000     91.3500     28.5600
 7141.0000      77.6800      2.3610     93.0000     30.0000
 7141.5000      77.0200      2.3390     94.6500     27.7800
 7142.0000      76.3000      2.4510     94.8000     27.0000
 7142.5000      74.6200      2.4670     94.9500     26.1600
 7143.0000      74.7400      2.4400     95.1000     28.8600
 7143.5000      74.9200      2.4270     95.2500     31.5600
 7144.0000      75.1600      2.4700     93.1500     34.2600
 7144.5000      75.3400      2.4830     92.2500     38.2200
 7145.0000      75.5800      2.4990     91.5000     38.7600
 7145.5000      75.7600      2.4840     90.6000     36.8400
 7146.0000      75.1600      2.5050     91.0500     32.8800
 7146.5000      74.5000      2.4290     91.3500     29.6400
 7147.0000      73.9000      2.4170     91.8000     27.1800
 7147.5000      73.2400      2.5320     92.2500     23.8800
 7148.0000      72.5800      2.6350     92.5500     18.7800
 7148.5000      71.1400      2.7030     93.0000     18.6600
 7149.0000      68.6800      2.7160     87.9000     16.9800
 7149.5000      66.2200      2.7080     82.8000     15.3600
 7150.0000      63.7600      2.7200     77.7000     12.4200
 7150.5000      62.7400      2.7330     72.6000     10.9200
 7151.0000      61.7800      2.7450     66.4500      9.3600
 7151.5000      60.7600      2.7580     60.4500      7.9200
 7152.0000      59.7400      2.7700     57.3000      6.9600
 7152.5000      58.7800      2.7790     54.3000      6.0600
 7153.0000      57.8200      2.7870     45.1500      5.1600
 7153.5000      56.8600      2.7780     40.0500      4.6200
 7154.0000      55.9000      2.7580     39.3000      4.2000
 7154.5000      56.6800      2.7560     38.5500      4.4400
 7155.0000      57.4600      2.7950     37.8000      5.0400
 7155.5000      58.2400      2.7680     37.5000      4.8000
 7156.0000      57.4000      2.7560     35.2500      4.6200
 7156.5000      56.6200      2.7550     33.0000      4.8600
 7157.0000      55.7800      2.7440     35.2500      5.2200
 7157.5000      54.9400      2.7450     37.3500      5.8800
 7158.0000      55.8400      2.7490     39.6000      6.8400
 7158.5000      56.7400      2.7460     42.7500      8.2200
 7159.0000      57.6400      2.7460     45.9000      8.1600
 7159.5000      58.5400      2.7380     49.0500      8.1600
 7160.0000      59.2000      2.7410     52.2000     10.0200
 7160.5000      59.8600      2.7310     50.5500     10.9800
 7161.0000      60.7600      2.7230     49.0500     11.7000
 7161.5000      61.6000      2.7490     48.9000     10.7400
 7162.0000      62.5000      2.7260     48.7500      9.8400
 7162.5000      61.6600      2.7160     45.7500      9.4200
 7163.0000      60.8200      2.7340     42.9000      9.4800
 7163.5000      59.9800      2.7510     41.7000      9.5400
 7164.0000      59.2000      2.7600     40.5000      9.6000
 7164.5000      58.3600      2.7410     37.2000     10.2600
 7165.0000      57.5200      2.7190     39.7500     11.4000
 7165.5000      59.2000      2.7020     42.3000     12.6000
 7166.0000      60.8200      2.7170     44.8500     13.6200
 7166.5000      61.3000      2.7230     47.4000     13.6800
 7167.0000      61.7800      2.7280     49.9500     13.7400
 7167.5000      64.3000      2.7400     52.5000     12.9600
 7168.0000      63.7600      2.7300     55.0500     12.2400
 7168.5000      63.2800      2.7260     53.5500     11.4000
 7169.0000      62.6800      2.7080     52.2000     12.7200
 7169.5000      62.1400      2.6980     50.7000     13.3200
 7170.0000      62.5600      2.7200     49.3500     13.5600
 7170.5000      62.9800      2.7410     50.2500     13.8000
 7171.0000      63.4000      2.7530     51.3000     13.6800
 7171.5000      63.8200      2.7430     52.2000     13.8000
 7172.0000      64.0000      2.7390     53.2500     14.0400
 7172.5000      64.1800      2.7350     54.1500     14.2800
 7173.0000      64.4200      2.7340     53.5500     13.8600
 7173.5000      64.6000      2.7330     52.9500     13.5000
 7174.0000      64.7800      2.7080     52.3500     12.9000
 7174.5000      62.9800      2.6990     49.9500     12.7200
 7175.0000      62.9800      2.7260     51.0000     13.3200
 7175.5000      62.9800      2.7160     52.0500     13.7400
 7176.0000      63.5800      2.7030     52.0500     13.6800
 7176.5000      64.1800      2.6990     52.0500     13.2000
 7177.0000      64.9000      2.7200     53.5500     12.7800
 7177.5000      65.6800      2.7400     55.9500     13.3800
 7178.0000      66.4000      2.7320     58.3500     12.7200
 7178.5000      65.9800      2.7250     59.1000     12.1200
 7179.0000      65.5600      2.7020     59.8500     11.5800
 7179.5000      65.1400      2.6990     60.6000     12.0600
 7180.0000      64.7200      2.7140     61.3500     12.4800
 7180.5000      64.0600      2.6980     61.0500     12.9600
 7181.0000      63.8800      2.6820     59.8500     14.0400
 7181.5000      63.7000      2.6790     56.8500     14.1000
 7182.0000      63.5200      2.6660     57.6000     14.1000
 7182.5000      63.3400      2.6910     58.3500     14.7000
 7183.0000      63.1600      2.7080     59.1000     15.4200
 7183.5000      64.0600      2.7110     59.8500     15.3000
 7184.0000      64.9600      2.7160     59.4000     15.1800
 7184.5000      65.8000      2.7210     58.9500     14.7000
 7185.0000      66.7000      2.7310     58.3500     14.7600
 7185.5000      66.2200      2.7400     57.9000     14.8200
 7186.0000      65.7400      2.7140     57.4500     14.3400
 7186.5000      65.3200      2.7090     57.3000     13.9200
 7187.0000      64.8400      2.7050     57.1500     13.4400
 7187.5000      64.3600      2.7150     57.0000     13.3800
 7188.0000      63.8800      2.7040     56.8500     13.3800
 7188.5000      64.0600      2.6930     57.3000     14.3400
 7189.0000      64.2400      2.6830     57.7500     15.2400
