~VERSION INFORMATION 
VERS.            2.0: LAS LOG ASCII STANDARD VERSION 2.0 
WRAP.             NO: ONE LINE PER DEPTH STEP 
~WELL INFORMATION 
#MNEM.UNIT     DATA                   DESCRIPTION    



















#------------------------------------------------
STRT.F      20.5000                    : 
STOP.F    17459.5000                    : 
STEP.F       0.5000                    : 
NULL.       -999.25                    : 
WELL.        R & J Sparks #1-8              : WELL NAME       
LONG.        0.0000000                      : LONGITUDE       
LAT.         0.0000000                      : LATITUDE        
STAT.        Michigan                       : STATE           
CNTY.        Gratiot                        : COUNTY          
PROS.        29739                          : PROSPECT        
API.         2105729739                     : API NUMBER      
DATE.        07-09-74                       : DATE            
OPER.        McClure Oil Co.                : OPERATOR        
~CURVE INFORMATION 
#MNEM.UNIT     API CODE               CURVE DESCRIPTION
#------------------------------------------------------
DEPT.F                                 : 1 DEPTH
DT  .usec/ft                        : 2 SONIC
RHOB.gm/cc                          : 3 DENSITY3
GR  .API UNITS                      : 4 GAMMA RAY
NPHI.%                              : 5 NEUTRON POR
~PARAMETER INFORMATION 
#MNEM.UNIT     VALUE                  DESCRIPTION
#------------------------------------------------
EKB.F         761.500                 : ELEVATION KB
~A   DEPTH           DT        RHOB          GR        NPHI
# ...
13956.5000      63.3200      2.4540    139.8000   -999.2500
13957.0000      60.6400      2.4280    127.9500   -999.2500
13957.5000      60.2000      2.3520    120.3000   -999.2500
13958.0000      59.1200      2.3410    109.8000   -999.2500
13958.5000      58.0800      2.3310    107.7000   -999.2500
13959.0000      57.0000      2.3200    105.7500   -999.2500
13959.5000      58.7600      2.3340    111.1500   -999.2500
13960.0000      59.8400      2.3480    114.0000   -999.2500
13960.5000      61.5200      2.3620    128.1000   -999.2500
13961.0000      58.9200      2.3520    126.6000   -999.2500
13961.5000      57.4000      2.3280    117.9000   -999.2500
13962.0000      58.0000      2.3460    114.4500   -999.2500
13962.5000      59.8800      2.3630    111.1500   -999.2500
13963.0000      61.7600      2.3810    126.6000   -999.2500
13963.5000      62.2400      2.3440    133.8000   -999.2500
13964.0000      62.6400      2.3000    141.0000   -999.2500
13964.5000      60.6400      2.2900    125.5500   -999.2500
13965.0000      59.8800      2.2810    115.6500   -999.2500
13965.5000      59.2800      2.2740    112.9500   -999.2500
13966.0000      58.6400      2.2530    111.6000   -999.2500
13966.5000      58.2800      2.1790    111.7500   -999.2500
13967.0000      57.8800      2.2060    109.5000   -999.2500
13967.5000      57.8000      2.3600    100.2000   -999.2500
13968.0000      57.2400      2.3980     96.4500   -999.2500
13968.5000      57.0800      2.4530     96.3000   -999.2500
13969.0000      56.7200      2.4390     96.3000   -999.2500
13969.5000      58.6000      2.4260    107.4000   -999.2500
13970.0000      59.2800      2.4120    112.5000   -999.2500
13970.5000      59.9600      2.3990    113.7000   -999.2500
13971.0000      60.4000      2.3850    121.5000   -999.2500
13971.5000      60.4400      2.4040    120.3000   -999.2500
13972.0000      60.4400      2.4220    120.1500   -999.2500
13972.5000      60.4800      2.5000    120.0000   -999.2500
13973.0000      61.6000      2.5240    126.6000   -999.2500
13973.5000      62.7200      2.5470    125.5500   -999.2500
13974.0000      62.6400      2.5220    124.5000   -999.2500
13974.5000      60.0400      2.4970    120.0000   -999.2500
13975.0000      59.1600      2.4960    109.6500   -999.2500
13975.5000      58.2800      2.4790    105.4500   -999.2500
13976.0000      58.4000      2.4630    102.6000   -999.2500
13976.5000      58.9600      2.4700    104.4000   -999.2500
13977.0000      59.7600      2.4750    104.2500   -999.2500
13977.5000      58.9200      2.4810    109.3500   -999.2500
13978.0000      58.2800      2.4610    112.0500   -999.2500
13978.5000      58.6000      2.4420    118.0500   -999.2500
13979.0000      59.6800      2.4480    123.7500   -999.2500
13979.5000      60.7600      2.4540    134.4000   -999.2500
13980.0000      61.6000      2.4600    140.1000   -999.2500
13980.5000      62.4400      2.3960    141.6000   -999.2500
13981.0000      62.8000      2.3780    143.1000   -999.2500
13981.5000      63.0000      2.3600    134.4000   -999.2500
13982.0000      63.2000      2.3620    128.2500   -999.2500
13982.5000      61.9600      2.3850    124.0500   -999.2500
13983.0000      59.6400      2.4190    118.0500   -999.2500
13983.5000      57.3200      2.4300    112.2000   -999.2500
13984.0000      58.7600      2.4420    109.2000   -999.2500
13984.5000      60.5600      2.4530    106.3500   -999.2500
13985.0000      62.0000      2.4640    119.7000   -999.2500
13985.5000      61.5200      2.4450    121.2000   -999.2500
13986.0000      60.6800      2.4010    128.2500   -999.2500
13986.5000      60.7600      2.3500    124.9500   -999.2500
13987.0000      61.2400      2.3220    118.5000   -999.2500
13987.5000      61.9600      2.2950    129.3000   -999.2500
13988.0000      62.6800      2.3620    142.0500   -999.2500
13988.5000      62.8800      2.4070    143.4000   -999.2500
13989.0000      63.1200      2.4340    144.7500   -999.2500
13989.5000      63.3200      2.4390    138.7500   -999.2500
13990.0000      64.0800      2.4440    135.0000   -999.2500
13990.5000      63.4400      2.4490    130.9500   -999.2500
13991.0000      62.8800      2.4080    126.9000   -999.2500
13991.5000      61.7200      2.3590    123.4500   -999.2500
13992.0000      62.2800      2.3650    129.3000   -999.2500
13992.5000      63.2400      2.3710    134.4000   -999.2500
13993.0000      64.2000      2.3780    138.3000   -999.2500
13993.5000      64.2400      2.3840    137.7000   -999.2500
13994.0000      64.8800      2.3900    135.7500   -999.2500
13994.5000      65.4800      2.3440    133.2000   -999.2500
13995.0000      64.4800      2.3420    125.1000   -999.2500
13995.5000      64.1200      2.3200    108.0000   -999.2500
13996.0000      63.6000      2.3160    104.5500   -999.2500
13996.5000      62.9600      2.3120    101.1000   -999.2500
13997.0000      61.2000      2.2830     97.6500   -999.2500
13997.5000      59.4400      2.2590    110.7000   -999.2500
13998.0000      57.6800      2.2360    127.0500   -999.2500
13998.5000      58.3200      2.2600    131.8500   -999.2500
13999.0000      60.4800      2.2830    129.6000   -999.2500
13999.5000      61.2400      2.3070    127.3500   -999.2500
14000.0000      61.0800      2.2940    140.5500   -999.2500
14000.5000      60.9200      2.3310    139.2000   -999.2500
14001.0000      60.8400      2.3670    138.1500   -999.2500
14001.5000      61.2800      2.3600    135.7500   -999.2500
14002.0000      62.8800      2.3520    137.7000   -999.2500
14002.5000      63.4400      2.3450    139.6500   -999.2500
14003.0000      63.9600      2.3680    139.9500   -999.2500
14003.5000      62.9200      2.3900    142.2000   -999.2500
14004.0000      62.4000      2.4370    144.7500   -999.2500
14004.5000      62.5600      2.4310    147.3000   -999.2500
14005.0000      62.7200      2.4240    149.8500   -999.2500
14005.5000      61.8800      2.4160    159.9000   -999.2500
14006.0000      61.5600      2.4070    162.6000   -999.2500
14006.5000      61.6000      2.3980    161.4000   -999.2500
14007.0000      61.9200      2.3870    158.1000   -999.2500
14007.5000      62.4800      2.3680    152.5500   -999.2500
14008.0000      63.0400      2.3500    150.1500   -999.2500
14008.5000      62.9600      2.3390    150.0000   -999.2500
14009.0000      62.0800      2.3270    127.9500   -999.2500
14009.5000      61.4000      2.3160    112.8000   -999.2500
14010.0000      59.8400      2.2840     97.6500   -999.2500
14010.5000      58.2400      2.2300     91.6500   -999.2500
14011.0000      56.6000      2.2580     90.9000   -999.2500
14011.5000      56.3200      2.2860     90.1500   -999.2500
14012.0000      55.9200      2.2690     93.7500   -999.2500
14012.5000      56.0400      2.1540     97.0500   -999.2500
14013.0000      57.8800      2.0510    100.9500   -999.2500
14013.5000      58.4400      2.0000    104.8500   -999.2500
14014.0000      57.5200      2.0000     99.1500   -999.2500
14014.5000      57.0800      2.0000     92.7000   -999.2500
14015.0000      55.5600      2.0000     91.2000   -999.2500
14015.5000      55.9200      2.0000     94.2000   -999.2500
14016.0000      57.6400      2.1450     97.2000   -999.2500
14016.5000      57.6800      2.1700     98.8500   -999.2500
14017.0000      58.2000      2.2030    100.5000   -999.2500
14017.5000      58.6800      2.2980    102.1500   -999.2500
14018.0000      58.0000      2.3170    103.8000   -999.2500
14018.5000      57.3200      2.3520    106.6500   -999.2500
14019.0000      56.6400      2.3760    104.1000   -999.2500
14019.5000      56.1200      2.4010    102.4500   -999.2500
14020.0000      57.5200      2.4460    100.8000   -999.2500
14020.5000      58.7200      2.4900    104.1000   -999.2500
14021.0000      60.8000      2.5340    106.8000   -999.2500
14021.5000      61.2000      2.4970    111.0000   -999.2500
14022.0000      61.8800      2.4740    116.2500   -999.2500
14022.5000      61.6000      2.3920    129.7500   -999.2500
14023.0000      61.6800      2.4140    134.7000   -999.2500
