~VERSION INFORMATION 
VERS.            2.0: LAS LOG ASCII STANDARD VERSION 2.0 
WRAP.             NO: ONE LINE PER DEPTH STEP 
~WELL INFORMATION 
#MNEM.UNIT     DATA                   DESCRIPTION    



















#------------------------------------------------
STRT.F      20.5000                    : 
STOP.F    17459.5000                    : 
STEP.F       0.5000                    : 
NULL.       -999.25                    : 
WELL.        R & J Sparks #1-8              : WELL NAME       
LONG.        0.0000000                      : LONGITUDE       
LAT.         0.0000000                      : LATITUDE        
STAT.        Michigan                       : STATE           
CNTY.        Gratiot                        : COUNTY          
PROS.        29739                          : PROSPECT        
API.         2105729739                     : API NUMBER      
DATE.        07-09-74                       : DATE            
OPER.        McClure Oil Co.                : OPERATOR        
~CURVE INFORMATION 
#MNEM.UNIT     API CODE               CURVE DESCRIPTION
#------------------------------------------------------
DEPT.F                                 : 1 DEPTH
DT  .usec/ft                        : 2 SONIC
RHOB.gm/cc                          : 3 DENSITY3
GR  .API UNITS                      : 4 GAMMA RAY
NPHI.%                              : 5 NEUTRON POR
~PARAMETER INFORMATION 
#MNEM.UNIT     VALUE                  DESCRIPTION
#------------------------------------------------
EKB.F         761.500                 : ELEVATION KB
~A   DEPTH           DT        RHOB          GR        NPHI
# ...
 5983.5000      52.2400      2.8900     15.6000      0.5400
 5984.0000      52.6600      2.9260     14.7000      0.3600
 5984.5000      53.0200      2.9330     13.9500      0.1800
 5985.0000      53.4400      2.9320     15.0000      0.1200
 5985.5000      53.5600      2.8960     15.9000      0.0600
 5986.0000      54.4600      2.8570     16.9500      0.0600
 5986.5000      55.3000      2.8320     18.1500      0.1800
 5987.0000      56.2000      2.8220     19.2000      0.3600
 5987.5000      54.2200      2.8470     18.4500      0.4800
 5988.0000      53.3200      2.8710     17.7000      0.6000
 5988.5000      52.4200      2.8840     17.1000      0.6000
 5989.0000      52.0600      2.8860     16.3500      0.6000
 5989.5000      51.7000      2.8970     16.9500      0.3600
 5990.0000      51.3400      2.8740     17.5500      0.1200
 5990.5000      51.8200      2.8610     18.1500     -0.1200
 5991.0000      52.2400      2.8750     18.4500     -0.2400
 5991.5000      52.7200      2.8820     18.7500     -0.3000
 5992.0000      53.0200      2.8890     19.0500     -0.4200
 5992.5000      53.2600      2.8510     20.2500     -0.3600
 5993.0000      53.5600      2.8600     21.4500     -0.3000
 5993.5000      53.8600      2.8380     22.5000      0.1800
 5994.0000      53.6800      2.8040     23.7000      0.4200
 5994.5000      53.5000      2.7630     23.1000      0.6600
 5995.0000      53.3200      2.7520     22.5000      0.8400
 5995.5000      53.1400      2.7620     21.9000      1.0800
 5996.0000      53.0200      2.7740     21.4500      0.9600
 5996.5000      52.8400      2.7790     20.8500      0.8400
 5997.0000      52.6600      2.7840     20.2500      0.6600
 5997.5000      52.4800      2.7480     20.1000      0.5400
 5998.0000      52.3000      2.7570     19.9500      0.4200
 5998.5000      52.6600      2.7650     19.8000      0.3600
 5999.0000      52.9600      2.7560     19.8000      0.3000
 5999.5000      53.3200      2.7450     19.2000      0.2400
 6000.0000      53.6200      2.7240     18.7500      0.1200
 6000.5000      53.9800      2.7330     19.6500      0.0600
 6001.0000      53.5600      2.7430     20.4000      0.0000
 6001.5000      53.0800      2.7520     21.3000     -0.0600
 6002.0000      52.6600      2.7510     22.0500     -0.0600
 6002.5000      51.2800      2.7500     21.3000     -0.1200
 6003.0000      51.1000      2.7490     20.4000     -0.1200
 6003.5000      50.9800      2.7560     19.6500     -0.1200
 6004.0000      50.8000      2.7630     18.7500     -0.1800
 6004.5000      50.6800      2.7360     17.8500     -0.3000
 6005.0000      50.8600      2.7420     16.9500     -0.3600
 6005.5000      51.1000      2.7500     14.7000     -0.4200
 6006.0000      51.2800      2.7430     12.4500     -0.4800
 6006.5000      51.3400      2.7320     13.3500     -0.5400
 6007.0000      51.3400      2.7350     14.2500     -0.6000
 6007.5000      51.3400      2.7220     15.1500     -0.6000
 6008.0000      51.3400      2.7330     15.3000     -0.4800
 6008.5000      51.3400      2.7440     15.4500     -0.3600
 6009.0000      51.7600      2.7510     15.4500     -0.2400
 6009.5000      52.1200      2.7600     17.5500     -0.2400
 6010.0000      52.5400      2.7620     19.6500     -0.1800
 6010.5000      53.8000      2.7450     21.7500     -0.1800
 6011.0000      55.0600      2.7430     23.8500     -0.1800
 6011.5000      55.4800      2.7380     24.4500     -0.0600
 6012.0000      55.9000      2.7320     25.5000      0.0000
 6012.5000      56.3200      2.7380     26.2500      0.1800
 6013.0000      58.0600      2.7510     27.1500      0.4200
 6013.5000      58.1800      2.7500     27.9000      1.9200
 6014.0000      58.6600      2.7480     28.0500      2.8200
 6014.5000      59.0800      2.7460     28.3500      3.7800
 6015.0000      56.2600      2.7430     28.5000      4.9800
 6015.5000      53.9800      2.7210     25.5000      5.7600
 6016.0000      53.2000      2.7140     22.6500      4.0200
 6016.5000      52.3600      2.7400     19.6500      2.1000
 6017.0000      51.5800      2.7980     17.5500      0.5400
 6017.5000      54.2800      2.8180     15.4500     -0.1800
 6018.0000      56.9800      2.8580     13.3500     -0.9000
 6018.5000      59.6200      2.8680     13.0500     -0.9600
 6019.0000      74.2000      2.8590     12.1500     -1.0200
 6019.5000      77.8600      2.8730     11.2500     -1.2000
 6020.0000      78.9400      2.8750     10.3500     -1.4400
 6020.5000      80.0800      2.8470      9.4500     -1.6200
 6021.0000      81.1600      2.8150      9.4500     -1.8000
 6021.5000      79.9600      2.7130      9.6000     -2.0400
 6022.0000      78.8200      2.5590      9.6000     -2.3400
 6022.5000      77.3200      2.3470      9.7500     -2.5800
 6023.0000      75.8800      2.2490      9.7500     -2.2200
 6023.5000      74.2600      2.1500      9.9000     -1.8600
 6024.0000      73.1800      1.9740     10.0500     -1.8600
 6024.5000      72.1600      1.9640     10.0500     -1.8000
 6025.0000      71.0800      1.9930     10.2000     -1.8000
 6025.5000      70.0600      2.0030     10.3500     -1.7400
 6026.0000      71.7400      2.0260      9.7500     -1.7400
 6026.5000      73.4200      2.0080      9.0000     -1.7400
 6027.0000      76.4800      1.9910      8.4000     -1.6800
 6027.5000      79.5400      1.9800      7.8000     -1.6800
 6028.0000      77.5600      1.9980      8.7000     -1.8000
 6028.5000      75.5800      2.0320      9.6000     -1.9200
 6029.0000      73.6000      2.0290     10.5000     -1.9800
 6029.5000      70.6000      2.0400     11.2500     -2.1000
 6030.0000      68.6200      2.0290     12.1500     -2.1000
 6030.5000      66.6400      2.0310     12.9000     -2.1600
 6031.0000      69.0400      2.0340     13.6500     -2.1600
 6031.5000      71.3800      2.0370     12.7500     -2.1000
 6032.0000      71.8600      2.0300     11.7000     -2.0400
 6032.5000      73.7200      2.0230     10.8000     -2.1000
 6033.0000      75.5200      2.0610     10.5000     -2.1000
 6033.5000      77.3800      2.0840     10.2000     -2.1600
 6034.0000      79.1800      2.1140      9.9000     -2.2200
 6034.5000      72.2800      2.1020      9.6000     -2.2200
 6035.0000      70.6000      2.0920     10.2000     -2.2800
 6035.5000      68.9800      2.1090     10.8000     -2.2800
 6036.0000      69.2800      2.1000     11.4000     -2.2800
 6036.5000      69.5800      2.0820     11.8500     -2.2800
 6037.0000      69.8800      2.0700     12.4500     -2.3400
 6037.5000      70.1800      2.0710     12.9000     -2.3400
 6038.0000      71.3200      2.0630     12.4500     -2.4000
 6038.5000      72.4000      2.0480     11.8500     -2.3400
 6039.0000      73.5400      2.0550     11.4000     -2.3400
 6039.5000      74.6200      2.0630     11.1000     -2.3400
 6040.0000      75.7600      2.0520     10.8000     -2.3400
 6040.5000      73.4800      2.0660     10.5000     -2.3400
 6041.0000      71.3800      2.0330     10.6500     -2.3400
 6041.5000      72.2800      2.0090     10.6500     -2.3400
 6042.0000      73.2400      2.0350     11.8500     -2.2800
 6042.5000      74.1400      2.0440     12.9000     -2.2800
 6043.0000      75.0400      2.0680     12.9000     -2.2800
 6043.5000      76.7200      2.0860     12.7500     -2.2800
 6044.0000      78.4000      2.0630     12.7500     -2.2800
 6044.5000      76.0600      2.0760     12.6000     -2.3400
 6045.0000      73.6600      2.0990     12.6000     -2.3400
 6045.5000      71.3200      2.1010     12.3000     -2.3400
 6046.0000      72.5200      2.0730     12.1500     -2.3400
 6046.5000      73.6600      2.0610     11.8500     -2.3400
 6047.0000      74.8600      2.0490     11.7000     -2.3400
 6047.5000      76.0000      2.0360     11.2500     -2.3400
 6048.0000      72.2800      2.0250     10.9500     -2.3400
 6048.5000      71.2600      2.0260     10.5000     -2.3400
 6049.0000      70.1800      2.0380     10.0500     -2.3400
 6049.5000      69.1600      2.0650      9.6000     -2.3400
 6050.0000      70.4800      2.0770      9.1500     -2.2800
