~VERSION INFORMATION 
VERS.            2.0: LAS LOG ASCII STANDARD VERSION 2.0 
WRAP.             NO: ONE LINE PER DEPTH STEP 
~WELL INFORMATION 
#MNEM.UNIT     DATA                   DESCRIPTION    



















#------------------------------------------------
STRT.F      20.5000                    : 
STOP.F    17459.5000                    : 
STEP.F       0.5000                    : 
NULL.       -999.25                    : 
WELL.        R & J Sparks #1-8              : WELL NAME       
LONG.        0.0000000                      : LONGITUDE       
LAT.         0.0000000                      : LATITUDE        
STAT.        Michigan                       : STATE           
CNTY.        Gratiot                        : COUNTY          
PROS.        29739                          : PROSPECT        
API.         2105729739                     : API NUMBER      
DATE.        07-09-74                       : DATE            
OPER.        McClure Oil Co.                : OPERATOR        
~CURVE INFORMATION 
#MNEM.UNIT     API CODE               CURVE DESCRIPTION
#------------------------------------------------------
DEPT.F                                 : 1 DEPTH
DT  .usec/ft                        : 2 SONIC
RHOB.gm/cc                          : 3 DENSITY3
GR  .API UNITS                      : 4 GAMMA RAY
NPHI.%                              : 5 NEUTRON POR
~PARAMETER INFORMATION 
#MNEM.UNIT     VALUE                  DESCRIPTION
#------------------------------------------------
EKB.F         761.500                 : ELEVATION KB
~A   DEPTH           DT        RHOB          GR        NPHI
# ...
 3705.5000      46.4800      2.7690     16.3500   -999.2500
 3706.0000      46.3600      2.7600     16.5000   -999.2500
 3706.5000      46.6600      2.7510     16.6500   -999.2500
 3707.0000      46.9000      2.7780     16.3500   -999.2500
 3707.5000      47.2000      2.7980     16.0500   -999.2500
 3708.0000      47.4400      2.8580     15.9000   -999.2500
 3708.5000      47.7400      2.8690     15.3000   -999.2500
 3709.0000      48.0400      2.8870     14.4000   -999.2500
 3709.5000      48.3400      2.9120     13.5000   -999.2500
 3710.0000      49.0000      2.9540     12.6000   -999.2500
 3710.5000      49.1800      2.9490     11.7000   -999.2500
 3711.0000      49.3000      2.9390     10.8000   -999.2500
 3711.5000      49.4800      2.9210     11.8500   -999.2500
 3712.0000      49.1800      2.9070     12.7500   -999.2500
 3712.5000      48.9400      2.9470     13.8000   -999.2500
 3713.0000      48.7000      2.9590     13.5000   -999.2500
 3713.5000      48.5200      2.9500     13.2000   -999.2500
 3714.0000      48.4000      2.9390     12.9000   -999.2500
 3714.5000      48.2200      2.9220     12.6000   -999.2500
 3715.0000      48.1000      2.9210     12.7500   -999.2500
 3715.5000      48.3400      2.9020     12.9000   -999.2500
 3716.0000      48.5800      2.8790     13.0500   -999.2500
 3716.5000      48.8200      2.8920     13.0500   -999.2500
 3717.0000      49.0600      2.9040     13.2000   -999.2500
 3717.5000      49.3000      2.8910     13.2000   -999.2500
 3718.0000      49.5400      2.9070     13.3500   -999.2500
 3718.5000      49.7800      2.9540     13.3500   -999.2500
 3719.0000      49.2400      2.9440     13.9500   -999.2500
 3719.5000      48.7600      2.9590     16.5000   -999.2500
 3720.0000      48.4000      2.9410     17.1000   -999.2500
 3720.5000      48.0400      2.9130     17.7000   -999.2500
 3721.0000      47.4400      2.8910     18.4500   -999.2500
 3721.5000      46.8400      2.8750     19.0500   -999.2500
 3722.0000      46.1800      2.8100     19.8000   -999.2500
 3722.5000      45.5800      2.8080     19.6500   -999.2500
 3723.0000      45.7000      2.7790     19.6500   -999.2500
 3723.5000      45.8200      2.7810     19.5000   -999.2500
 3724.0000      46.0000      2.7910     18.7500   -999.2500
 3724.5000      46.9600      2.7890     18.0000   -999.2500
 3725.0000      47.5600      2.8010     17.2500   -999.2500
 3725.5000      48.3400      2.8450     16.0500   -999.2500
 3726.0000      48.4600      2.8960     14.8500   -999.2500
 3726.5000      49.0600      2.9290     13.9500   -999.2500
 3727.0000      49.1200      2.9410     13.0500   -999.2500
 3727.5000      49.2400      2.9600     12.6000   -999.2500
 3728.0000      50.1400      2.9990     12.0000   -999.2500
 3728.5000      49.7200      2.9890     11.5500   -999.2500
 3729.0000      49.3600      2.9990     11.5500   -999.2500
 3729.5000      48.9400      2.9680     11.5500   -999.2500
 3730.0000      49.0600      2.9820     11.5500   -999.2500
 3730.5000      49.1200      2.9530     11.5500   -999.2500
 3731.0000      49.2400      2.9380     11.7000   -999.2500
 3731.5000      49.3000      2.9240     11.7000   -999.2500
 3732.0000      49.3000      2.9380     11.7000   -999.2500
 3732.5000      49.3000      2.9120     11.7000   -999.2500
 3733.0000      49.1800      2.8990     11.7000   -999.2500
 3733.5000      49.1200      2.9290     11.8500   -999.2500
 3734.0000      49.4800      2.9170     12.0000   -999.2500
 3734.5000      49.7800      2.9050     14.1000   -999.2500
 3735.0000      50.1400      2.9180     15.0000   -999.2500
 3735.5000      50.4400      2.8720     15.9000   -999.2500
 3736.0000      50.9200      2.8020     15.4500   -999.2500
 3736.5000      51.5800      2.7520     15.1500   -999.2500
 3737.0000      51.8200      2.7100     14.7000   -999.2500
 3737.5000      52.0600      2.6950     14.4000   -999.2500
 3738.0000      52.6000      2.6710     14.5500   -999.2500
 3738.5000      52.5400      2.6930     14.5500   -999.2500
 3739.0000      50.9200      2.7190     14.7000   -999.2500
 3739.5000      49.3600      2.7060     14.7000   -999.2500
 3740.0000      49.0600      2.6910     14.8500   -999.2500
 3740.5000      48.7600      2.7240     14.8500   -999.2500
 3741.0000      48.4600      2.7580     15.0000   -999.2500
 3741.5000      48.1600      2.7540     15.0000   -999.2500
 3742.0000      48.4000      2.7760     15.4500   -999.2500
 3742.5000      48.7000      2.7500     15.7500   -999.2500
 3743.0000      48.9400      2.7230     16.2000   -999.2500
 3743.5000      48.3400      2.7170     16.8000   -999.2500
 3744.0000      47.7400      2.7120     17.2500   -999.2500
 3744.5000      47.6800      2.7060     17.7000   -999.2500
 3745.0000      47.0800      2.7080     18.1500   -999.2500
 3745.5000      46.4800      2.7200     18.6000   -999.2500
 3746.0000      45.9400      2.7310     19.0500   -999.2500
 3746.5000      46.8400      2.7120     19.5000   -999.2500
 3747.0000      47.6800      2.7420     19.5000   -999.2500
 3747.5000      48.2800      2.7630     19.5000   -999.2500
 3748.0000      48.6400      2.7490     19.5000   -999.2500
 3748.5000      48.9400      2.7310     19.3500   -999.2500
 3749.0000      50.2600      2.7590     19.3500   -999.2500
 3749.5000      49.7800      2.7690     17.8500   -999.2500
 3750.0000      49.3000      2.7810     16.8000   -999.2500
 3750.5000      48.8200      2.7920     15.7500   -999.2500
 3751.0000      48.3400      2.7980     14.7000   -999.2500
 3751.5000      47.8600      2.8450     13.6500   -999.2500
 3752.0000      48.2800      2.8690     13.0500   -999.2500
 3752.5000      48.6400      2.8950     12.4500   -999.2500
 3753.0000      49.0600      2.9110     11.8500   -999.2500
 3753.5000      49.4200      2.9490     11.7000   -999.2500
 3754.0000      49.8400      2.9510     11.5500   -999.2500
 3754.5000      50.2000      2.9530     11.5500   -999.2500
 3755.0000      49.9000      2.9720     11.7000   -999.2500
 3755.5000      49.6000      2.9620     11.8500   -999.2500
 3756.0000      49.3000      2.9300     12.0000   -999.2500
 3756.5000      49.0000      2.9520     12.0000   -999.2500
 3757.0000      49.2400      2.9370     12.1500   -999.2500
 3757.5000      49.4800      2.9230     12.1500   -999.2500
 3758.0000      49.7200      2.9610     12.3000   -999.2500
 3758.5000      49.6000      2.9430     12.3000   -999.2500
 3759.0000      49.4200      2.9260     12.4500   -999.2500
 3759.5000      49.3000      2.9410     12.6000   -999.2500
 3760.0000      49.5400      2.9550     12.6000   -999.2500
 3760.5000      49.7200      2.9650     12.6000   -999.2500
 3761.0000      49.4200      2.9750     12.6000   -999.2500
 3761.5000      49.1200      2.9130     12.6000   -999.2500
 3762.0000      48.9400      2.9410     12.6000   -999.2500
 3762.5000      49.0000      2.9680     12.4500   -999.2500
 3763.0000      49.0600      2.9420     12.4500   -999.2500
 3763.5000      49.1200      2.9500     12.4500   -999.2500
 3764.0000      49.1800      2.9570     12.3000   -999.2500
 3764.5000      49.2400      2.9070     12.3000   -999.2500
 3765.0000      49.6000      2.9110     12.3000   -999.2500
 3765.5000      49.9000      2.8980     12.3000   -999.2500
 3766.0000      49.3000      2.9190     13.2000   -999.2500
 3766.5000      48.7000      2.9400     14.1000   -999.2500
 3767.0000      46.4200      2.9490     16.2000   -999.2500
 3767.5000      45.5800      2.9580     18.0000   -999.2500
 3768.0000      44.7400      2.9540     18.9000   -999.2500
 3768.5000      44.3200      2.9500     19.8000   -999.2500
 3769.0000      43.9600      2.9240     21.1500   -999.2500
 3769.5000      44.0800      2.8970     22.6500   -999.2500
 3770.0000      44.1400      2.8830     24.0000   -999.2500
 3770.5000      44.2600      2.8710     23.5500   -999.2500
 3771.0000      44.3800      2.8600     23.1000   -999.2500
 3771.5000      44.2000      2.8530     22.6500   -999.2500
 3772.0000      44.0200      2.8610     22.2000   -999.2500
