~VERSION INFORMATION 
VERS.            2.0: LAS LOG ASCII STANDARD VERSION 2.0 
WRAP.             NO: ONE LINE PER DEPTH STEP 
~WELL INFORMATION 
#MNEM.UNIT     DATA                   DESCRIPTION    



















#------------------------------------------------
STRT.F      20.5000                    : 
STOP.F    17459.5000                    : 
STEP.F       0.5000                    : 
NULL.       -999.25                    : 
WELL.        R & J Sparks #1-8              : WELL NAME       
LONG.        0.0000000                      : LONGITUDE       
LAT.         0.0000000                      : LATITUDE        
STAT.        Michigan                       : STATE           
CNTY.        Gratiot                        : COUNTY          
PROS.        29739                          : PROSPECT        
API.         2105729739                     : API NUMBER      
DATE.        07-09-74                       : DATE            
OPER.        McClure Oil Co.                : OPERATOR        
~CURVE INFORMATION 
#MNEM.UNIT     API CODE               CURVE DESCRIPTION
#------------------------------------------------------
DEPT.F                                 : 1 DEPTH
DT  .usec/ft                        : 2 SONIC
RHOB.gm/cc                          : 3 DENSITY3
GR  .API UNITS                      : 4 GAMMA RAY
NPHI.%                              : 5 NEUTRON POR
~PARAMETER INFORMATION 
#MNEM.UNIT     VALUE                  DESCRIPTION
#------------------------------------------------
EKB.F         761.500                 : ELEVATION KB
~A   DEPTH           DT        RHOB          GR        NPHI
# ...
 8261.5000      47.5600      2.6780      9.1500     -0.1200
 8262.0000      47.3800      2.7110      9.7500     -0.2400
 8262.5000      47.1400      2.7270     10.2000     -0.3000
 8263.0000      47.2000      2.7960     10.2000     -0.2400
 8263.5000      47.5000      2.7320     10.2000      0.0000
 8264.0000      47.7400      2.6780     10.2000      0.2400
 8264.5000      48.0400      2.6610     12.0000      0.7200
 8265.0000      48.2800      2.7210     13.8000      0.6000
 8265.5000      48.5800      2.7100     14.1000      0.4200
 8266.0000      48.8200      2.7130     14.2500      0.3000
 8266.5000      48.5200      2.6870     14.5500      0.2400
 8267.0000      48.1600      2.6590     14.7000      0.2400
 8267.5000      47.8600      2.6540     13.9500      0.1800
 8268.0000      48.3400      2.6790     13.0500      0.2400
 8268.5000      48.7600      2.6700     12.3000      0.2400
 8269.0000      49.2400      2.6990     12.3000      0.3000
 8269.5000      49.6600      2.7130     12.3000      0.4200
 8270.0000      50.1400      2.7270     13.9500      0.4800
 8270.5000      49.8400      2.6980     15.4500      0.5400
 8271.0000      49.5400      2.6680     17.1000      0.6000
 8271.5000      49.2400      2.6660     15.7500      0.6600
 8272.0000      49.0000      2.6660     14.2500      0.7200
 8272.5000      48.7000      2.7030     12.9000      0.7200
 8273.0000      48.4000      2.6820     13.9500      0.7200
 8273.5000      48.3400      2.6690     15.1500      0.6600
 8274.0000      48.2800      2.6860     16.2000      0.4200
 8274.5000      48.2200      2.6850     15.4500      0.1800
 8275.0000      48.1600      2.7030     14.8500     -0.0600
 8275.5000      48.0400      2.6850     14.1000     -0.1200
 8276.0000      47.9800      2.7090     14.1000     -0.1200
 8276.5000      47.9200      2.7330     14.1000     -0.1200
 8277.0000      47.8600      2.7540     13.8000     -0.1800
 8277.5000      47.8600      2.7450     13.5000     -0.3000
 8278.0000      47.9200      2.7530     13.2000     -0.3600
 8278.5000      47.9200      2.7640     12.9000     -0.4200
 8279.0000      48.0400      2.6730     13.3500     -0.5400
 8279.5000      48.1600      2.6510     13.6500     -0.6000
 8280.0000      48.2800      2.6350     14.1000     -0.7200
 8280.5000      48.4000      2.6680     13.6500     -0.7200
 8281.0000      48.2200      2.6760     13.0500     -0.7200
 8281.5000      48.1000      2.5840     12.6000     -0.7200
 8282.0000      47.9200      2.5690     12.4500      0.1200
 8282.5000      47.7400      2.5960     12.3000      0.1800
 8283.0000      47.5600      2.5980     12.1500      0.3600
 8283.5000      47.4400      2.6240     12.0000      0.4200
 8284.0000      47.2600      2.6360     12.9000      0.3600
 8284.5000      47.6200      2.6030     13.8000      0.3600
 8285.0000      47.9200      2.6490     14.7000      0.4200
 8285.5000      48.2800      2.6850     15.6000      0.4200
 8286.0000      48.3400      2.6370     15.0000      0.4800
 8286.5000      48.4000      2.6350     14.5500      0.5400
 8287.0000      48.5800      2.6650     13.9500      0.5400
 8287.5000      48.7000      2.6910     13.5000      0.6000
 8288.0000      48.8800      2.7310     12.9000      0.5400
 8288.5000      48.2800      2.7660     13.9500      0.5400
 8289.0000      47.6800      2.7040     14.8500      0.3000
 8289.5000      47.8000      2.6820     15.9000      0.0600
 8290.0000      47.8600      2.7660     15.7500     -0.1200
 8290.5000      47.9800      2.7590     15.7500     -0.3600
 8291.0000      48.0400      2.7580     15.7500     -0.6000
 8291.5000      48.1600      2.7780     15.9000     -0.4800
 8292.0000      48.2800      2.7320     15.9000     -0.3600
 8292.5000      48.4000      2.7180     15.9000     -0.2400
 8293.0000      48.4000      2.7070     16.2000     -0.1200
 8293.5000      48.3400      2.6770     16.5000     -0.1200
 8294.0000      48.3400      2.6680     17.2500     -0.1200
 8294.5000      48.3400      2.6860     18.0000     -0.1800
 8295.0000      48.3400      2.6770     17.5500     -0.1200
 8295.5000      48.2800      2.6930     16.9500     -0.1200
 8296.0000      48.2800      2.7160     16.5000     -0.0600
 8296.5000      48.2800      2.6810     16.2000      0.0000
 8297.0000      48.4600      2.6630     15.1500      0.0000
 8297.5000      48.7000      2.6880     14.1000      0.0000
 8298.0000      48.8800      2.7020     14.5500      0.0000
 8298.5000      48.8200      2.6820     14.8500      0.0600
 8299.0000      48.8200      2.6950     15.3000      0.0600
 8299.5000      48.7600      2.6730     15.6000      0.0600
 8300.0000      48.7600      2.6720     15.6000      0.0600
 8300.5000      48.7000      2.6790     15.6000      0.1800
 8301.0000      48.7000      2.6940     15.6000      0.3000
 8301.5000      48.6400      2.6700     15.3000      0.3600
 8302.0000      48.7000      2.6850     14.8500      0.3000
 8302.5000      48.7600      2.7000     14.2500      0.3000
 8303.0000      48.8800      2.6830     13.8000      0.1800
 8303.5000      48.9400      2.6950     14.5500      0.1200
 8304.0000      49.0000      2.6780     15.1500      0.0000
 8304.5000      49.0600      2.6980     15.9000     -0.0600
 8305.0000      48.7600      2.7210     15.1500     -0.1200
 8305.5000      48.4600      2.6890     14.5500     -0.1800
 8306.0000      48.1600      2.6680     13.8000     -0.1200
 8306.5000      47.8600      2.6590     13.6500     -0.1200
 8307.0000      47.5600      2.6740     13.5000     -0.0600
 8307.5000      47.2600      2.6880     13.3500      0.0000
 8308.0000      47.5600      2.6960     13.2000      0.0600
 8308.5000      47.8600      2.7050     13.8000      0.1200
 8309.0000      48.1600      2.7130     14.4000      0.0600
 8309.5000      48.4600      2.7300     14.5500     -0.0600
 8310.0000      48.7600      2.6980     14.7000     -0.1200
 8310.5000      48.8800      2.7090     14.8500     -0.2400
 8311.0000      49.0000      2.7200     15.1500     -0.1800
 8311.5000      49.1200      2.6740     15.3000     -0.1800
 8312.0000      49.3000      2.6530     14.5500      0.0600
 8312.5000      49.4200      2.6570     13.8000      0.3000
 8313.0000      49.5400      2.6750     13.5000      0.3000
 8313.5000      49.3600      2.6950     13.3500      0.3000
 8314.0000      49.1800      2.7320     12.9000      0.1800
 8314.5000      49.0000      2.7000     12.6000      0.1200
 8315.0000      48.7600      2.7010     12.1500      0.0000
 8315.5000      48.5800      2.7020     11.8500     -0.0600
 8316.0000      48.4000      2.7080     12.3000     -0.1800
 8316.5000      48.2200      2.7130     12.9000     -0.2400
 8317.0000      48.0400      2.7190     13.3500     -0.1800
 8317.5000      48.1000      2.7090     13.0500     -0.1800
 8318.0000      48.2200      2.7000     12.7500     -0.1800
 8318.5000      48.2800      2.7090     13.3500     -0.1800
 8319.0000      48.3400      2.7190     14.1000     -0.1800
 8319.5000      48.4000      2.7300     14.7000     -0.1800
 8320.0000      48.4600      2.7100     14.7000     -0.1800
 8320.5000      48.6400      2.7270     14.7000     -0.1800
 8321.0000      48.8200      2.7420     14.7000     -0.1800
 8321.5000      49.0600      2.7340     15.3000     -0.1200
 8322.0000      49.2400      2.7260     15.9000     -0.1200
 8322.5000      49.3600      2.7480     16.2000     -0.0600
 8323.0000      49.4800      2.7730     16.5000     -0.0600
 8323.5000      49.4800      2.7810     16.8000      0.0000
 8324.0000      49.4200      2.7440     15.6000      0.0000
 8324.5000      49.4200      2.7330     14.4000      0.0600
 8325.0000      49.4200      2.7020     15.4500      0.0600
 8325.5000      49.4200      2.6920     16.3500      0.0600
 8326.0000      49.4800      2.7070     17.4000      0.0600
 8326.5000      49.4800      2.7250     17.2500      0.0600
 8327.0000      49.6600      2.6870     17.2500      0.0600
 8327.5000      49.7800      2.7020     17.8500      0.1200
 8328.0000      49.9600      2.6930     18.6000      0.1200
