~VERSION INFORMATION 
VERS.            2.0: LAS LOG ASCII STANDARD VERSION 2.0 
WRAP.             NO: ONE LINE PER DEPTH STEP 
~WELL INFORMATION 
#MNEM.UNIT     DATA                   DESCRIPTION    



















#------------------------------------------------
STRT.F      20.5000                    : 
STOP.F    17459.5000                    : 
STEP.F       0.5000                    : 
NULL.       -999.25                    : 
WELL.        R & J Sparks #1-8              : WELL NAME       
LONG.        0.0000000                      : LONGITUDE       
LAT.         0.0000000                      : LATITUDE        
STAT.        Michigan                       : STATE           
CNTY.        Gratiot                        : COUNTY          
PROS.        29739                          : PROSPECT        
API.         2105729739                     : API NUMBER      
DATE.        07-09-74                       : DATE            
OPER.        McClure Oil Co.                : OPERATOR        
~CURVE INFORMATION 
#MNEM.UNIT     API CODE               CURVE DESCRIPTION
#------------------------------------------------------
DEPT.F                                 : 1 DEPTH
DT  .usec/ft                        : 2 SONIC
RHOB.gm/cc                          : 3 DENSITY3
GR  .API UNITS                      : 4 GAMMA RAY
NPHI.%                              : 5 NEUTRON POR
~PARAMETER INFORMATION 
#MNEM.UNIT     VALUE                  DESCRIPTION
#------------------------------------------------
EKB.F         761.500                 : ELEVATION KB
~A   DEPTH           DT        RHOB          GR        NPHI
# ...
  288.5000      63.8000   -999.2500     18.9000   -999.2500
  289.0000      63.3000   -999.2500     18.0000   -999.2500
  289.5000      60.1000   -999.2500     17.1000   -999.2500
  290.0000      59.2000   -999.2500     16.2000   -999.2500
  290.5000      58.3000   -999.2500     16.5000   -999.2500
  291.0000      60.7000   -999.2500     16.8000   -999.2500
  291.5000      63.0000   -999.2500     17.1000   -999.2500
  292.0000      65.4000   -999.2500     23.7000   -999.2500
  292.5000      67.7000   -999.2500     24.9000   -999.2500
  293.0000      65.6000   -999.2500     26.7000   -999.2500
  293.5000      64.5000   -999.2500     28.0500   -999.2500
  294.0000      60.1000   -999.2500     29.4000   -999.2500
  294.5000      64.3000   -999.2500     31.3500   -999.2500
  295.0000      51.4000   -999.2500     33.3000   -999.2500
  295.5000      61.3000   -999.2500     34.6500   -999.2500
  296.0000      60.6000   -999.2500     35.8500   -999.2500
  296.5000      60.0000   -999.2500     37.2000   -999.2500
  297.0000      64.4000   -999.2500     38.4000   -999.2500
  297.5000      68.7000   -999.2500     36.9000   -999.2500
  298.0000      68.2000   -999.2500     36.7500   -999.2500
  298.5000      67.8000   -999.2500     36.6000   -999.2500
  299.0000      80.0000   -999.2500     35.1000   -999.2500
  299.5000      88.4000   -999.2500     32.4000   -999.2500
  300.0000      87.2000   -999.2500     32.1000   -999.2500
  300.5000      88.7000   -999.2500     30.9000   -999.2500
  301.0000      88.2000   -999.2500     29.7000   -999.2500
  301.5000      87.7000   -999.2500     28.5000   -999.2500
  302.0000      91.1000   -999.2500     28.3500   -999.2500
  302.5000      94.5000   -999.2500     28.2000   -999.2500
  303.0000      88.1000   -999.2500     27.1500   -999.2500
  303.5000      82.1000   -999.2500     26.1000   -999.2500
  304.0000      74.6000   -999.2500     25.0500   -999.2500
  304.5000      73.0000   -999.2500     26.4000   -999.2500
  305.0000      71.4000   -999.2500     27.6000   -999.2500
  305.5000      72.8000   -999.2500     28.9500   -999.2500
  306.0000      74.1000   -999.2500     27.9000   -999.2500
  306.5000      72.1000   -999.2500     27.0000   -999.2500
  307.0000      70.1000   -999.2500     25.9500   -999.2500
  307.5000      72.2000   -999.2500     27.1500   -999.2500
  308.0000      74.2000   -999.2500     28.3500   -999.2500
  308.5000      73.4000   -999.2500     29.5500   -999.2500
  309.0000      72.6000   -999.2500     28.2000   -999.2500
  309.5000      72.7000   -999.2500     26.7000   -999.2500
  310.0000      75.5000   -999.2500     25.3500   -999.2500
  310.5000      78.2000   -999.2500     25.6500   -999.2500
  311.0000      81.0000   -999.2500     25.9500   -999.2500
  311.5000      68.8000   -999.2500     26.1000   -999.2500
  312.0000      86.5000   -999.2500     26.4000   -999.2500
  312.5000      70.7000   -999.2500     26.5500   -999.2500
  313.0000      71.2000   -999.2500     25.8000   -999.2500
  313.5000      71.8000   -999.2500     25.2000   -999.2500
  314.0000      72.3000   -999.2500     24.9000   -999.2500
  314.5000      71.1000   -999.2500     24.7500   -999.2500
  315.0000      69.7000   -999.2500     24.4500   -999.2500
  315.5000      68.3000   -999.2500     24.3000   -999.2500
  316.0000      70.8000   -999.2500     24.6000   -999.2500
  316.5000      73.2000   -999.2500     24.9000   -999.2500
  317.0000      75.7000   -999.2500     25.6500   -999.2500
  317.5000      78.1000   -999.2500     26.4000   -999.2500
  318.0000      92.7000   -999.2500     27.7500   -999.2500
  318.5000      91.6000   -999.2500     29.1000   -999.2500
  319.0000      90.4000   -999.2500     27.9000   -999.2500
  319.5000      89.3000   -999.2500     26.7000   -999.2500
  320.0000      92.2000   -999.2500     29.1000   -999.2500
  320.5000      95.3000   -999.2500     31.5000   -999.2500
  321.0000      97.6000   -999.2500     30.6000   -999.2500
  321.5000      98.0000   -999.2500     29.7000   -999.2500
  322.0000      98.6000   -999.2500     30.7500   -999.2500
  322.5000      99.5000   -999.2500     31.8000   -999.2500
  323.0000     101.2000   -999.2500     33.3000   -999.2500
  323.5000     102.9000   -999.2500     35.1000   -999.2500
  324.0000     101.3000   -999.2500     37.8000   -999.2500
  324.5000      99.7000   -999.2500     40.2000   -999.2500
  325.0000     100.6000   -999.2500     41.5500   -999.2500
  325.5000      96.9000   -999.2500     43.0500   -999.2500
  326.0000      95.5000   -999.2500     44.4000   -999.2500
  326.5000      94.2000   -999.2500     42.6000   -999.2500
  327.0000      92.8000   -999.2500     40.8000   -999.2500
  327.5000      95.9000   -999.2500     43.2000   -999.2500
  328.0000      99.0000   -999.2500     45.6000   -999.2500
  328.5000     102.1000   -999.2500     48.3000   -999.2500
  329.0000     105.4000   -999.2500     52.2000   -999.2500
  329.5000     108.7000   -999.2500     49.5000   -999.2500
  330.0000     111.9000   -999.2500     46.8000   -999.2500
  330.5000     115.2000   -999.2500     44.1000   -999.2500
  331.0000     102.8000   -999.2500     42.0000   -999.2500
  331.5000      98.7000   -999.2500     40.0500   -999.2500
  332.0000      94.5000   -999.2500     41.1000   -999.2500
  332.5000      90.5000   -999.2500     42.3000   -999.2500
  333.0000      92.5000   -999.2500     43.3500   -999.2500
  333.5000      94.4000   -999.2500     46.5000   -999.2500
  334.0000      93.4000   -999.2500     44.2500   -999.2500
  334.5000      92.5000   -999.2500     42.0000   -999.2500
  335.0000      94.4000   -999.2500     39.7500   -999.2500
  335.5000      96.0000   -999.2500     37.5000   -999.2500
  336.0000      97.7000   -999.2500     39.9000   -999.2500
  336.5000      98.6000   -999.2500     42.1500   -999.2500
  337.0000      99.5000   -999.2500     44.5500   -999.2500
  337.5000     100.4000   -999.2500     46.8000   -999.2500
  338.0000     102.6000   -999.2500     48.1500   -999.2500
  338.5000     104.8000   -999.2500     48.4500   -999.2500
  339.0000     107.0000   -999.2500     48.0000   -999.2500
  339.5000     109.2000   -999.2500     47.5500   -999.2500
  340.0000     111.3000   -999.2500     49.9500   -999.2500
  340.5000     113.5000   -999.2500     52.9500   -999.2500
  341.0000     115.8000   -999.2500     55.0500   -999.2500
  341.5000     119.2000   -999.2500     57.1500   -999.2500
  342.0000     122.2000   -999.2500     58.9500   -999.2500
  342.5000     125.3000   -999.2500     55.6500   -999.2500
  343.0000     128.3000   -999.2500     52.5000   -999.2500
  343.5000     120.7000   -999.2500     49.2000   -999.2500
  344.0000     122.3000   -999.2500     44.8500   -999.2500
  344.5000     123.8000   -999.2500     40.5000   -999.2500
  345.0000     130.1000   -999.2500     36.1500   -999.2500
  345.5000     126.5000   -999.2500     31.8000   -999.2500
  346.0000     123.0000   -999.2500     33.1500   -999.2500
  346.5000     119.4000   -999.2500     34.3500   -999.2500
  347.0000     109.7000   -999.2500     35.7000   -999.2500
  347.5000     102.3000   -999.2500     36.9000   -999.2500
  348.0000      96.2000   -999.2500     36.6000   -999.2500
  348.5000      90.2000   -999.2500     36.3000   -999.2500
  349.0000      88.1000   -999.2500     38.1000   -999.2500
  349.5000      86.0000   -999.2500     39.9000   -999.2500
  350.0000      83.9000   -999.2500     42.9000   -999.2500
  350.5000      88.1000   -999.2500     44.7000   -999.2500
  351.0000      92.3000   -999.2500     46.5000   -999.2500
  351.5000      96.5000   -999.2500     47.7000   -999.2500
  352.0000     100.7000   -999.2500     50.7000   -999.2500
  352.5000     110.7000   -999.2500     52.9500   -999.2500
  353.0000     111.8000   -999.2500     55.2000   -999.2500
  353.5000     112.9000   -999.2500     58.0500   -999.2500
  354.0000     113.9000   -999.2500     60.9000   -999.2500
  354.5000     115.1000   -999.2500     60.0000   -999.2500
  355.0000     115.9000   -999.2500     59.1000   -999.2500
