~VERSION INFORMATION 
VERS.            2.0: LAS LOG ASCII STANDARD VERSION 2.0 
WRAP.             NO: ONE LINE PER DEPTH STEP 
~WELL INFORMATION 
#MNEM.UNIT     DATA                   DESCRIPTION    



















#------------------------------------------------
STRT.F      20.5000                    : 
STOP.F    17459.5000                    : 
STEP.F       0.5000                    : 
NULL.       -999.25                    : 
WELL.        R & J Sparks #1-8              : WELL NAME       
LONG.        0.0000000                      : LONGITUDE       
LAT.         0.0000000                      : LATITUDE        
STAT.        Michigan                       : STATE           
CNTY.        Gratiot                        : COUNTY          
PROS.        29739                          : PROSPECT        
API.         2105729739                     : API NUMBER      
DATE.        07-09-74                       : DATE            
OPER.        McClure Oil Co.                : OPERATOR        
~CURVE INFORMATION 
#MNEM.UNIT     API CODE               CURVE DESCRIPTION
#------------------------------------------------------
DEPT.F                                 : 1 DEPTH
DT  .usec/ft                        : 2 SONIC
RHOB.gm/cc                          : 3 DENSITY3
GR  .API UNITS                      : 4 GAMMA RAY
NPHI.%                              : 5 NEUTRON POR
~PARAMETER INFORMATION 
#MNEM.UNIT     VALUE                  DESCRIPTION
#------------------------------------------------
EKB.F         761.500                 : ELEVATION KB
~A   DEPTH           DT        RHOB          GR        NPHI
# ...
 1427.5000      85.9000      2.6040     70.6500   -999.2500
 1428.0000      86.5000      2.6060     71.8500   -999.2500
 1428.5000      85.4800      2.6160     73.2000   -999.2500
 1429.0000      85.0000      2.6250     72.1500   -999.2500
 1429.5000      84.5200      2.6070     71.1000   -999.2500
 1430.0000      84.0400      2.6110     71.5500   -999.2500
 1430.5000      83.5600      2.6220     72.1500   -999.2500
 1431.0000      84.2800      2.6330     72.6000   -999.2500
 1431.5000      85.0000      2.5960     73.0500   -999.2500
 1432.0000      85.3000      2.6040     73.6500   -999.2500
 1432.5000      85.5400      2.5970     74.1000   -999.2500
 1433.0000      85.8400      2.5990     72.6000   -999.2500
 1433.5000      86.0200      2.6000     71.2500   -999.2500
 1434.0000      86.2000      2.6270     69.7500   -999.2500
 1434.5000      86.3800      2.6300     70.2000   -999.2500
 1435.0000      85.8400      2.6610     70.8000   -999.2500
 1435.5000      85.3000      2.6480     71.2500   -999.2500
 1436.0000      84.7000      2.6050     70.5000   -999.2500
 1436.5000      84.1600      2.6160     69.9000   -999.2500
 1437.0000      83.5600      2.6270     69.1500   -999.2500
 1437.5000      83.0200      2.6260     68.5500   -999.2500
 1438.0000      83.6200      2.6110     68.8500   -999.2500
 1438.5000      84.1600      2.5970     69.0000   -999.2500
 1439.0000      84.7600      2.6050     69.3000   -999.2500
 1439.5000      85.3000      2.6200     69.4500   -999.2500
 1440.0000      84.5800      2.6350     69.7500   -999.2500
 1440.5000      83.8000      2.6200     69.9000   -999.2500
 1441.0000      83.0800      2.6160     70.2000   -999.2500
 1441.5000      82.1200      2.6240     70.3500   -999.2500
 1442.0000      81.2200      2.6130     68.1000   -999.2500
 1442.5000      80.6200      2.6020     65.7000   -999.2500
 1443.0000      80.0200      2.5950     63.4500   -999.2500
 1443.5000      80.0200      2.5890     61.0500   -999.2500
 1444.0000      79.9600      2.5820     58.8000   -999.2500
 1444.5000      79.9600      2.5900     56.4000   -999.2500
 1445.0000      74.9800      2.6040     54.1500   -999.2500
 1445.5000      67.5400      2.6310     51.7500   -999.2500
 1446.0000      70.0000      2.6580     49.5000   -999.2500
 1446.5000      72.4000      2.6680     50.7000   -999.2500
 1447.0000      74.8600      2.6770     52.0500   -999.2500
 1447.5000      77.2600      2.6770     53.2500   -999.2500
 1448.0000      79.7200      2.6240     54.4500   -999.2500
 1448.5000      76.6000      2.6410     55.8000   -999.2500
 1449.0000      73.4800      2.6580     57.0000   -999.2500
 1449.5000      74.7400      2.6400     55.8000   -999.2500
 1450.0000      76.0000      2.6650     54.6000   -999.2500
 1450.5000      74.7400      2.6900     56.4000   -999.2500
 1451.0000      73.4800      2.6670     57.0000   -999.2500
 1451.5000      72.2200      2.6930     57.6000   -999.2500
 1452.0000      70.3000      2.7060     58.8000   -999.2500
 1452.5000      77.5000      2.7180     61.5000   -999.2500
 1453.0000      80.3200      2.6790     64.0500   -999.2500
 1453.5000      83.1400      2.6560     66.6000   -999.2500
 1454.0000      83.7400      2.6390     66.3000   -999.2500
 1454.5000      84.2800      2.6390     65.2500   -999.2500
 1455.0000      83.8000      2.6390     64.0500   -999.2500
 1455.5000      83.3200      2.6390     63.0000   -999.2500
 1456.0000      82.8400      2.6280     65.1000   -999.2500
 1456.5000      82.3600      2.6050     67.2000   -999.2500
 1457.0000      83.5600      2.5950     69.3000   -999.2500
 1457.5000      84.7000      2.5860     69.7500   -999.2500
 1458.0000      86.3200      2.5970     70.0500   -999.2500
 1458.5000      86.8000      2.6070     70.5000   -999.2500
 1459.0000      87.2800      2.6160     70.8000   -999.2500
 1459.5000      87.7000      2.6330     72.4500   -999.2500
 1460.0000      88.1800      2.6170     73.9500   -999.2500
 1460.5000      86.1400      2.6270     75.4500   -999.2500
 1461.0000      85.1200      2.6370     73.5000   -999.2500
 1461.5000      84.1600      2.6390     71.5500   -999.2500
 1462.0000      83.1400      2.6420     69.7500   -999.2500
 1462.5000      82.1800      2.6440     67.8000   -999.2500
 1463.0000      83.8000      2.6220     69.6000   -999.2500
 1463.5000      85.4200      2.5930     71.4000   -999.2500
 1464.0000      85.5400      2.6000     71.2500   -999.2500
 1464.5000      86.6800      2.6070     70.9500   -999.2500
 1465.0000      87.8200      2.6260     70.8000   -999.2500
 1465.5000      88.6000      2.6330     72.3000   -999.2500
 1466.0000      89.3200      2.6400     71.2500   -999.2500
 1466.5000      90.1000      2.6170     70.0500   -999.2500
 1467.0000      89.5000      2.6110     69.0000   -999.2500
 1467.5000      88.9600      2.6210     70.2000   -999.2500
 1468.0000      88.3600      2.6300     71.4000   -999.2500
 1468.5000      87.9400      2.6460     72.6000   -999.2500
 1469.0000      87.5200      2.6690     71.1000   -999.2500
 1469.5000      87.1000      2.6500     72.3000   -999.2500
 1470.0000      86.4400      2.6180     73.5000   -999.2500
 1470.5000      85.8400      2.5990     74.7000   -999.2500
 1471.0000      85.1800      2.5810     70.9500   -999.2500
 1471.5000      84.5800      2.5820     67.0500   -999.2500
 1472.0000      83.9200      2.5660     63.3000   -999.2500
 1472.5000      83.3200      2.5520     59.5500   -999.2500
 1473.0000      84.2200      2.5300     55.8000   -999.2500
 1473.5000      85.1200      2.4820     51.9000   -999.2500
 1474.0000      86.0200      2.4560     48.1500   -999.2500
 1474.5000      86.5000      2.4430     48.9000   -999.2500
 1475.0000      87.0400      2.4310     49.8000   -999.2500
 1475.5000      87.5200      2.4420     50.5500   -999.2500
 1476.0000      88.0000      2.4180     49.6500   -999.2500
 1476.5000      87.4000      2.4280     48.7500   -999.2500
 1477.0000      86.7400      2.4080     49.5000   -999.2500
 1477.5000      86.1400      2.4290     50.1000   -999.2500
 1478.0000      85.6000      2.4500     50.8500   -999.2500
 1478.5000      85.1200      2.4630     49.6500   -999.2500
 1479.0000      83.9800      2.4750     48.4500   -999.2500
 1479.5000      82.9000      2.4930     47.2500   -999.2500
 1480.0000      79.3000      2.5180     46.0500   -999.2500
 1480.5000      79.6600      2.5070     47.8500   -999.2500
 1481.0000      80.0800      2.5250     49.6500   -999.2500
 1481.5000      80.4400      2.5170     52.6500   -999.2500
 1482.0000      81.6400      2.5090     54.3000   -999.2500
 1482.5000      82.7800      2.5210     55.8000   -999.2500
 1483.0000      82.1200      2.5380     57.4500   -999.2500
 1483.5000      81.5200      2.5540     56.1000   -999.2500
 1484.0000      80.8600      2.5300     54.9000   -999.2500
 1484.5000      81.4000      2.5040     53.5500   -999.2500
 1485.0000      81.8800      2.5020     52.3500   -999.2500
 1485.5000      81.2800      2.4840     51.0000   -999.2500
 1486.0000      80.7400      2.4660     49.2000   -999.2500
 1486.5000      80.2000      2.4950     47.2500   -999.2500
 1487.0000      79.6600      2.5050     45.4500   -999.2500
 1487.5000      79.1200      2.5150     43.5000   -999.2500
 1488.0000      79.4200      2.5250     41.7000   -999.2500
 1488.5000      79.6600      2.5090     43.9500   -999.2500
 1489.0000      79.9600      2.4930     46.0500   -999.2500
 1489.5000      79.5400      2.4780     48.3000   -999.2500
 1490.0000      79.1200      2.4790     47.1000   -999.2500
 1490.5000      78.6400      2.4800     45.9000   -999.2500
 1491.0000      78.2200      2.4880     44.7000   -999.2500
 1491.5000      77.8000      2.4960     43.5000   -999.2500
 1492.0000      76.9000      2.4860     42.3000   -999.2500
 1492.5000      77.1400      2.4990     43.0500   -999.2500
 1493.0000      77.3800      2.5110     43.8000   -999.2500
 1493.5000      76.9600      2.5150     43.2000   -999.2500
 1494.0000      76.5400      2.5210     42.6000   -999.2500
