~VERSION INFORMATION 
VERS.            2.0: LAS LOG ASCII STANDARD VERSION 2.0 
WRAP.             NO: ONE LINE PER DEPTH STEP 
~WELL INFORMATION 
#MNEM.UNIT     DATA                   DESCRIPTION    



















#------------------------------------------------
STRT.F      20.5000                    : 
STOP.F    17459.5000                    : 
STEP.F       0.5000                    : 
NULL.       -999.25                    : 
WELL.        R & J Sparks #1-8              : WELL NAME       
LONG.        0.0000000                      : LONGITUDE       
LAT.         0.0000000                      : LATITUDE        
STAT.        Michigan                       : STATE           
CNTY.        Gratiot                        : COUNTY          
PROS.        29739                          : PROSPECT        
API.         2105729739                     : API NUMBER      
DATE.        07-09-74                       : DATE            
OPER.        McClure Oil Co.                : OPERATOR        
~CURVE INFORMATION 
#MNEM.UNIT     API CODE               CURVE DESCRIPTION
#------------------------------------------------------
DEPT.F                                 : 1 DEPTH
DT  .usec/ft                        : 2 SONIC
RHOB.gm/cc                          : 3 DENSITY3
GR  .API UNITS                      : 4 GAMMA RAY
NPHI.%                              : 5 NEUTRON POR
~PARAMETER INFORMATION 
#MNEM.UNIT     VALUE                  DESCRIPTION
#------------------------------------------------
EKB.F         761.500                 : ELEVATION KB
~A   DEPTH           DT        RHOB          GR        NPHI
# ...
11678.5000      60.0400      2.4490     22.9500   -999.2500
11679.0000      58.5600      2.4040     26.2500   -999.2500
11679.5000      57.1200      2.3920     29.1000   -999.2500
11680.0000      61.9600      2.3800     31.8000   -999.2500
11680.5000      60.4000      2.4450     36.3000   -999.2500
11681.0000      59.9600      2.4780     34.9500   -999.2500
11681.5000      59.6000      2.4590     33.6000   -999.2500
11682.0000      59.2800      2.4710     30.3000   -999.2500
11682.5000      58.2400      2.4820     28.6500   -999.2500
11683.0000      58.4400      2.4500     27.0000   -999.2500
11683.5000      58.6400      2.4080     27.6000   -999.2500
11684.0000      59.1600      2.3900     28.2000   -999.2500
11684.5000      59.2400      2.4000     31.6500   -999.2500
11685.0000      59.9600      2.4090     35.1000   -999.2500
11685.5000      60.9200      2.3910     38.5500   -999.2500
11686.0000      61.5200      2.3620     42.0000   -999.2500
11686.5000      61.1600      2.4510     45.3000   -999.2500
11687.0000      60.4000      2.4880     42.4500   -999.2500
11687.5000      59.5600      2.5250     39.7500   -999.2500
11688.0000      60.5200      2.3980     34.6500   -999.2500
11688.5000      60.4800      2.3550     29.5500   -999.2500
11689.0000      60.0800      2.3370     31.9500   -999.2500
11689.5000      59.7200      2.3600     34.3500   -999.2500
11690.0000      59.4000      2.5030     39.3000   -999.2500
11690.5000      58.7600      2.5510     31.0500   -999.2500
11691.0000      59.4400      2.6140     28.3500   -999.2500
11691.5000      58.4400      2.5790     25.6500   -999.2500
11692.0000      59.6000      2.3990     30.7500   -999.2500
11692.5000      60.0400      2.3520     35.8500   -999.2500
11693.0000      60.4400      2.3130     40.9500   -999.2500
11693.5000      59.6800      2.3460     46.0500   -999.2500
11694.0000      59.9200      2.4970     57.3000   -999.2500
11694.5000      60.1600      2.5210     48.7500   -999.2500
11695.0000      60.4400      2.5440     40.3500   -999.2500
11695.5000      60.6800      2.5220     32.5500   -999.2500
11696.0000      59.6000      2.5510     24.9000   -999.2500
11696.5000      58.6400      2.5270     22.2000   -999.2500
11697.0000      58.8400      2.4530     18.3000   -999.2500
11697.5000      59.0400      2.4170     19.2000   -999.2500
11698.0000      59.6400      2.3820     19.9500   -999.2500
11698.5000      60.3200      2.4280     20.8500   -999.2500
11699.0000      59.9600      2.4530     23.1000   -999.2500
11699.5000      59.3200      2.4380     26.4000   -999.2500
11700.0000      58.6800      2.4010     31.6500   -999.2500
11700.5000      59.9200      2.4250     39.1500   -999.2500
11701.0000      60.2000      2.4480     46.5000   -999.2500
11701.5000      60.4800      2.4980     49.9500   -999.2500
11702.0000      60.0400      2.5370     53.2500   -999.2500
11702.5000      59.6000      2.5000     36.9000   -999.2500
11703.0000      59.3600      2.4810     33.9000   -999.2500
11703.5000      59.2000      2.4030     28.3500   -999.2500
11704.0000      59.0400      2.3600     25.6500   -999.2500
11704.5000      58.9600      2.3780     27.6000   -999.2500
11705.0000      59.0800      2.3950     29.1000   -999.2500
11705.5000      59.3600      2.4230     28.5000   -999.2500
11706.0000      58.8800      2.4060     26.2500   -999.2500
11706.5000      58.9600      2.3890     22.2000   -999.2500
11707.0000      59.3600      2.4010     21.6000   -999.2500
11707.5000      59.5200      2.4130     21.6000   -999.2500
11708.0000      60.0400      2.4550     21.6000   -999.2500
11708.5000      59.8000      2.4640     21.6000   -999.2500
11709.0000      59.5600      2.4850     23.4000   -999.2500
11709.5000      59.2400      2.5050     25.0500   -999.2500
11710.0000      60.8800      2.4550     26.8500   -999.2500
11710.5000      61.8000      2.4870     28.0500   -999.2500
11711.0000      61.4800      2.5140     29.2500   -999.2500
11711.5000      59.0800      2.4910     27.1500   -999.2500
11712.0000      64.9600      2.4690     25.0500   -999.2500
11712.5000      59.2800      2.4670     21.1500   -999.2500
11713.0000      58.5600      2.4650     22.9500   -999.2500
11713.5000      59.0000      2.4370     24.7500   -999.2500
11714.0000      59.6400      2.4490     26.7000   -999.2500
11714.5000      60.0400      2.4670     28.5000   -999.2500
11715.0000      60.4000      2.4970     30.3000   -999.2500
11715.5000      60.8000      2.5210     32.1000   -999.2500
11716.0000      61.7600      2.4880     35.4000   -999.2500
11716.5000      61.2400      2.4550     38.7000   -999.2500
11717.0000      60.6800      2.4260     34.5000   -999.2500
11717.5000      60.1600      2.4530     23.7000   -999.2500
11718.0000      59.7600      2.4990     25.0500   -999.2500
11718.5000      59.9200      2.5290     26.5500   -999.2500
11719.0000      60.0400      2.4270     27.9000   -999.2500
11719.5000      60.5600      2.4560     30.9000   -999.2500
11720.0000      59.9600      2.4850     25.2000   -999.2500
11720.5000      59.8000      2.4040     26.2500   -999.2500
11721.0000      59.8400      2.3480     27.3000   -999.2500
11721.5000      59.8400      2.3000     28.8000   -999.2500
11722.0000      59.3200      2.2760     30.1500   -999.2500
11722.5000      58.6400      2.2860     27.1500   -999.2500
11723.0000      58.3600      2.3470     25.6500   -999.2500
11723.5000      57.9600      2.3490     24.1500   -999.2500
11724.0000      57.6000      2.4490     29.5500   -999.2500
11724.5000      58.9600      2.5510     36.9000   -999.2500
11725.0000      59.6000      2.5060     47.5500   -999.2500
11725.5000      60.2000      2.3970     51.3000   -999.2500
11726.0000      60.5600      2.3710     55.0500   -999.2500
11726.5000      60.8000      2.3460     42.9000   -999.2500
11727.0000      61.0400      2.4000     37.6500   -999.2500
11727.5000      60.5600      2.4150     32.5500   -999.2500
11728.0000      60.4000      2.4300     27.3000   -999.2500
11728.5000      60.4400      2.4090     22.8000   -999.2500
11729.0000      59.5600      2.4190     21.9000   -999.2500
11729.5000      59.2000      2.4280     21.0000   -999.2500
11730.0000      58.2400      2.4480     18.9000   -999.2500
11730.5000      58.6800      2.4820     20.4000   -999.2500
11731.0000      59.1200      2.4690     22.3500   -999.2500
11731.5000      59.6000      2.4850     24.4500   -999.2500
11732.0000      60.0400      2.5000     26.4000   -999.2500
11732.5000      60.4800      2.4530     28.6500   -999.2500
11733.0000      61.5200      2.4020     30.7500   -999.2500
11733.5000      61.9200      2.3570     28.9500   -999.2500
11734.0000      62.3200      2.3670     26.1000   -999.2500
11734.5000      61.5200      2.3490     23.2500   -999.2500
11735.0000      61.2000      2.2970     21.7500   -999.2500
11735.5000      60.3600      2.3950     20.2500   -999.2500
11736.0000      60.0800      2.4200     21.1500   -999.2500
11736.5000      59.6000      2.4450     22.0500   -999.2500
11737.0000      60.0400      2.3980     23.7000   -999.2500
11737.5000      59.5600      2.4240     25.3500   -999.2500
11738.0000      59.6800      2.4510     22.6500   -999.2500
11738.5000      60.5600      2.4660     21.1500   -999.2500
11739.0000      60.6400      2.4790     20.5500   -999.2500
11739.5000      60.7600      2.4920     18.7500   -999.2500
11740.0000      61.1600      2.4640     20.2500   -999.2500
11740.5000      61.3200      2.4490     21.9000   -999.2500
11741.0000      66.0800      2.4370     23.4000   -999.2500
11741.5000      63.1600      2.4260     26.1000   -999.2500
11742.0000      60.2400      2.3910     24.4500   -999.2500
11742.5000      59.8400      2.3980     22.9500   -999.2500
11743.0000      59.7200      2.4040     21.3000   -999.2500
11743.5000      59.4000      2.3190     19.3500   -999.2500
11744.0000      59.1200      2.4010     17.4000   -999.2500
11744.5000      57.8400      2.4490     18.7500   -999.2500
11745.0000      58.2800      2.4760     20.1000   -999.2500
