~VERSION INFORMATION 
VERS.            2.0: LAS LOG ASCII STANDARD VERSION 2.0 
WRAP.             NO: ONE LINE PER DEPTH STEP 
~WELL INFORMATION 
#MNEM.UNIT     DATA                   DESCRIPTION    



















#------------------------------------------------
STRT.F      20.5000                    : 
STOP.F    17459.5000                    : 
STEP.F       0.5000                    : 
NULL.       -999.25                    : 
WELL.        R & J Sparks #1-8              : WELL NAME       
LONG.        0.0000000                      : LONGITUDE       
LAT.         0.0000000                      : LATITUDE        
STAT.        Michigan                       : STATE           
CNTY.        Gratiot                        : COUNTY          
PROS.        29739                          : PROSPECT        
API.         2105729739                     : API NUMBER      
DATE.        07-09-74                       : DATE            
OPER.        McClure Oil Co.                : OPERATOR        
~CURVE INFORMATION 
#MNEM.UNIT     API CODE               CURVE DESCRIPTION
#------------------------------------------------------
DEPT.F                                 : 1 DEPTH
DT  .usec/ft                        : 2 SONIC
RHOB.gm/cc                          : 3 DENSITY3
GR  .API UNITS                      : 4 GAMMA RAY
NPHI.%                              : 5 NEUTRON POR
~PARAMETER INFORMATION 
#MNEM.UNIT     VALUE                  DESCRIPTION
#------------------------------------------------
EKB.F         761.500                 : ELEVATION KB
~A   DEPTH           DT        RHOB          GR        NPHI
# ...
16234.5000      59.7200      2.6700    137.5500   -999.2500
16235.0000      59.8000      2.6520    140.5500   -999.2500
16235.5000      59.8800      2.6610    143.8500   -999.2500
16236.0000      59.9600      2.6700    139.9500   -999.2500
16236.5000      59.1200      2.6840    126.3000   -999.2500
16237.0000      58.3200      2.6700    118.9500   -999.2500
16237.5000      56.6000      2.6710    111.7500   -999.2500
16238.0000      57.3200      2.6710    124.6500   -999.2500
16238.5000      58.0000      2.6590    127.5000   -999.2500
16239.0000      59.0000      2.6450    135.6000   -999.2500
16239.5000      59.5600      2.6270    135.3000   -999.2500
16240.0000      58.8800      2.6030    131.4000   -999.2500
16240.5000      58.8400      2.6100    129.6000   -999.2500
16241.0000      58.8400      2.6460    129.0000   -999.2500
16241.5000      58.7200      2.6700    128.4000   -999.2500
16242.0000      58.6000      2.6810    124.9500   -999.2500
16242.5000      58.8400      2.6580    128.4000   -999.2500
16243.0000      59.1200      2.6500    130.5000   -999.2500
16243.5000      59.3600      2.6970    132.6000   -999.2500
16244.0000      59.6000      2.7060    132.7500   -999.2500
16244.5000      59.6800      2.7140    132.9000   -999.2500
16245.0000      59.7600      2.6980    136.5000   -999.2500
16245.5000      59.8400      2.6750    134.8500   -999.2500
16246.0000      59.9200      2.6640    131.7000   -999.2500
16246.5000      59.1600      2.6500    129.3000   -999.2500
16247.0000      58.7600      2.6260    126.7500   -999.2500
16247.5000      58.4000      2.6030    122.2500   -999.2500
16248.0000      58.0400      2.6280    123.6000   -999.2500
16248.5000      58.8400      2.6460    124.9500   -999.2500
16249.0000      59.6000      2.6310    130.6500   -999.2500
16249.5000      60.0800      2.6290    133.9500   -999.2500
16250.0000      60.5600      2.6280    138.6000   -999.2500
16250.5000      60.4400      2.6040    140.4000   -999.2500
16251.0000      60.3600      2.6230    139.3500   -999.2500
16251.5000      60.2400      2.6540    138.3000   -999.2500
16252.0000      60.1600      2.6630    136.8000   -999.2500
16252.5000      59.8400      2.6720    135.3000   -999.2500
16253.0000      59.6800      2.6850    131.5500   -999.2500
16253.5000      59.5600      2.6970    133.0500   -999.2500
16254.0000      59.6000      2.7430    134.4000   -999.2500
16254.5000      59.8800      2.7590    135.6000   -999.2500
16255.0000      59.8000      2.7750    132.4500   -999.2500
16255.5000      59.4400      2.7940    127.0500   -999.2500
16256.0000      59.5600      2.7720    128.4000   -999.2500
16256.5000      59.8400      2.7540    129.7500   -999.2500
16257.0000      59.8000      2.7560    132.0000   -999.2500
16257.5000      59.4000      2.7520    138.3000   -999.2500
16258.0000      59.5200      2.7260    137.4000   -999.2500
16258.5000      59.7600      2.7380    136.5000   -999.2500
16259.0000      60.0800      2.7300    135.1500   -999.2500
16259.5000      60.3600      2.7010    138.4500   -999.2500
16260.0000      60.7200      2.6790    141.6000   -999.2500
16260.5000      60.6800      2.6880    143.2500   -999.2500
16261.0000      60.6800      2.6970    144.9000   -999.2500
16261.5000      60.6400      2.7220    135.4500   -999.2500
16262.0000      59.2400      2.7470    127.6500   -999.2500
16262.5000      59.0000      2.7670    125.8500   -999.2500
16263.0000      58.8000      2.7870    122.7000   -999.2500
16263.5000      58.0000      2.7510    121.6500   -999.2500
16264.0000      58.0400      2.7610    120.6000   -999.2500
16264.5000      58.5600      2.7700    122.8500   -999.2500
16265.0000      58.4400      2.7800    125.1000   -999.2500
16265.5000      58.6800      2.7630    125.7000   -999.2500
16266.0000      58.8800      2.7520    126.3000   -999.2500
16266.5000      59.1200      2.7080    126.9000   -999.2500
16267.0000      59.3200      2.6820    128.1000   -999.2500
16267.5000      59.5200      2.6940    129.1500   -999.2500
16268.0000      59.7200      2.6840    130.0500   -999.2500
16268.5000      59.5600      2.6480    128.7000   -999.2500
16269.0000      59.3600      2.6470    121.8000   -999.2500
16269.5000      59.2000      2.6080    119.8500   -999.2500
16270.0000      58.0800      2.6240    117.9000   -999.2500
16270.5000      57.9600      2.6400    121.2000   -999.2500
16271.0000      57.7600      2.6770    123.6000   -999.2500
16271.5000      57.2800      2.7140    122.4000   -999.2500
16272.0000      57.4400      2.7090    121.5000   -999.2500
16272.5000      57.5600      2.7010    120.6000   -999.2500
16273.0000      57.5600      2.6850    122.1000   -999.2500
16273.5000      57.2000      2.6970    112.9500   -999.2500
16274.0000      56.1200      2.7140    109.9500   -999.2500
16274.5000      56.9600      2.7310    118.2000   -999.2500
16275.0000      57.7600      2.7140    126.6000   -999.2500
16275.5000      58.6000      2.7120    134.8500   -999.2500
16276.0000      59.2000      2.7090    138.7500   -999.2500
16276.5000      59.8000      2.7200    145.3500   -999.2500
16277.0000      59.8800      2.7310    145.0500   -999.2500
16277.5000      60.0000      2.7430    140.8500   -999.2500
16278.0000      60.0800      2.7490    139.3500   -999.2500
16278.5000      60.1600      2.7540    138.7500   -999.2500
16279.0000      60.2000      2.7600    138.7500   -999.2500
16279.5000      59.8000      2.7150    136.3500   -999.2500
16280.0000      59.4000      2.6940    133.8000   -999.2500
16280.5000      58.8000      2.6980    131.4000   -999.2500
16281.0000      58.4000      2.7010    122.8500   -999.2500
16281.5000      58.4800      2.6850    120.4500   -999.2500
16282.0000      58.5200      2.7380    118.0500   -999.2500
16282.5000      57.9200      2.7440    115.6500   -999.2500
16283.0000      57.4800      2.7490    112.5000   -999.2500
16283.5000      57.1600      2.7170    111.3000   -999.2500
16284.0000      56.8800      2.7120    110.1000   -999.2500
16284.5000      57.1600      2.7080    127.6500   -999.2500
16285.0000      58.0000      2.7030    130.5000   -999.2500
16285.5000      58.8400      2.7180    134.4000   -999.2500
16286.0000      58.9600      2.7140    138.3000   -999.2500
16286.5000      58.9200      2.7010    139.8000   -999.2500
16287.0000      58.8400      2.7020    141.1500   -999.2500
16287.5000      58.5200      2.7030    132.1500   -999.2500
16288.0000      57.3200      2.7040    123.0000   -999.2500
16288.5000      56.7200      2.7300    110.4000   -999.2500
16289.0000      56.1200      2.7200    110.1000   -999.2500
16289.5000      56.6000      2.7360    109.8000   -999.2500
16290.0000      58.0000      2.7480    111.0000   -999.2500
16290.5000      58.2800      2.7420    113.7000   -999.2500
16291.0000      58.5600      2.7370    127.0500   -999.2500
16291.5000      58.2800      2.7450    127.6500   -999.2500
16292.0000      57.5600      2.7520    128.2500   -999.2500
16292.5000      57.7200      2.7450    128.8500   -999.2500
16293.0000      57.8400      2.7370    130.0500   -999.2500
16293.5000      58.0000      2.7290    130.2000   -999.2500
16294.0000      58.2400      2.7400    130.3500   -999.2500
16294.5000      58.4800      2.7430    130.2000   -999.2500
16295.0000      58.1200      2.7460    129.0000   -999.2500
16295.5000      57.7600      2.7110    127.6500   -999.2500
16296.0000      57.0400      2.6980    126.4500   -999.2500
16296.5000      57.0000      2.6490    124.9500   -999.2500
16297.0000      56.5600      2.6040    122.5500   -999.2500
16297.5000      56.5200      2.5400    120.9000   -999.2500
16298.0000      56.5200      2.4620    117.3000   -999.2500
16298.5000      55.6400      2.3530    115.2000   -999.2500
16299.0000      55.4400      2.3010    115.2000   -999.2500
16299.5000      55.2400      2.2500    113.7000   -999.2500
16300.0000      54.0400      2.2720    101.8500   -999.2500
16300.5000      52.8800      2.2930     96.3000   -999.2500
16301.0000      53.6400      2.2840    103.9500   -999.2500
