~VERSION INFORMATION 
VERS.            2.0: LAS LOG ASCII STANDARD VERSION 2.0 
WRAP.             NO: ONE LINE PER DEPTH STEP 
~WELL INFORMATION 
#MNEM.UNIT     DATA                   DESCRIPTION    



















#------------------------------------------------
STRT.F      20.5000                    : 
STOP.F    17459.5000                    : 
STEP.F       0.5000                    : 
NULL.       -999.25                    : 
WELL.        R & J Sparks #1-8              : WELL NAME       
LONG.        0.0000000                      : LONGITUDE       
LAT.         0.0000000                      : LATITUDE        
STAT.        Michigan                       : STATE           
CNTY.        Gratiot                        : COUNTY          
PROS.        29739                          : PROSPECT        
API.         2105729739                     : API NUMBER      
DATE.        07-09-74                       : DATE            
OPER.        McClure Oil Co.                : OPERATOR        
~CURVE INFORMATION 
#MNEM.UNIT     API CODE               CURVE DESCRIPTION
#------------------------------------------------------
DEPT.F                                 : 1 DEPTH
DT  .usec/ft                        : 2 SONIC
RHOB.gm/cc                          : 3 DENSITY3
GR  .API UNITS                      : 4 GAMMA RAY
NPHI.%                              : 5 NEUTRON POR
~PARAMETER INFORMATION 
#MNEM.UNIT     VALUE                  DESCRIPTION
#------------------------------------------------
EKB.F         761.500                 : ELEVATION KB
~A   DEPTH           DT        RHOB          GR        NPHI
# ...
10539.5000      58.3000      2.6030     92.8500      4.2600
10540.0000      57.5200      2.6170     96.3000      4.5000
10540.5000      58.3000      2.6020     99.9000      4.5000
10541.0000      58.7800      2.6160     99.4500      3.8400
10541.5000      59.2600      2.5940     99.0000      3.3600
10542.0000      59.7400      2.6210     98.7000      4.5000
10542.5000      56.8000      2.6010     98.2500      5.2200
10543.0000      55.2400      2.6040     96.0000      4.0800
10543.5000      53.6800      2.6160     93.9000      3.1800
10544.0000      55.0600      2.6070     91.6500      2.2200
10544.5000      56.4400      2.6120     89.5500      1.2000
10545.0000      56.9800      2.6250     87.3000      1.1400
10545.5000      57.4600      2.6040     85.2000      1.1400
10546.0000      58.0000      2.6130     88.6500      1.9800
10546.5000      56.8000      2.5860     92.1000      3.1200
10547.0000      55.6600      2.5780     95.5500      3.0000
10547.5000      54.8800      2.5950     93.0000      2.4600
10548.0000      56.0800      2.5870     90.3000      2.4000
10548.5000      57.2200      2.5940     87.7500      2.5200
10549.0000      58.4200      2.6010     89.8500      3.4800
10549.5000      59.9800      2.6120     92.1000      4.2600
10550.0000      61.4800      2.5950     94.2000      5.1600
10550.5000      61.1800      2.5600     96.4500      5.8800
10551.0000      60.8800      2.5660     98.5500      5.1600
10551.5000      60.5800      2.5730     98.2500      4.4400
10552.0000      60.4600      2.5790     97.9500      4.2000
10552.5000      60.4000      2.5950     97.6500      5.4600
10553.0000      60.2800      2.5720     96.3000      6.3000
10553.5000      60.2200      2.5900     94.9500      5.8200
10554.0000      60.1000      2.5720     93.6000      5.3400
10554.5000      58.6600      2.5970     92.2500      4.9200
10555.0000      57.6400      2.6050     94.6500      4.4400
10555.5000      56.6200      2.6040     97.2000      3.1800
10556.0000      53.0800      2.6310     99.6000      2.2800
10556.5000      52.0600      2.6370     93.4500      1.5600
10557.0000      51.5200      2.6420     87.1500      0.8400
10557.5000      51.0400      2.6740     81.0000      0.5400
10558.0000      54.2200      2.6940     76.3500      0.3000
10558.5000      54.9400      2.7000     71.7000      0.3600
10559.0000      55.6000      2.6250     67.0500      0.4200
10559.5000      56.3200      2.6120     75.0000      0.9600
10560.0000      55.7200      2.6110     82.8000      1.6200
10560.5000      55.1200      2.6190     94.0500      2.2800
10561.0000      54.1000      2.6360     95.7000      2.6400
10561.5000      53.7400      2.6510     97.2000      2.9400
10562.0000      53.4400      2.6410     98.8500      2.2200
10562.5000      54.2800      2.6400     98.5500      1.5600
10563.0000      55.1800      2.6390     95.4000      1.5000
10563.5000      56.0200      2.6460     92.2500      1.5000
10564.0000      56.8600      2.6530     89.1000      1.3800
10564.5000      57.7000      2.6300     85.9500      1.3200
10565.0000      57.4600      2.6180     88.9500      1.5000
10565.5000      57.2200      2.6030     91.9500      2.0400
10566.0000      58.1800      2.5950     90.9000      2.2800
10566.5000      59.0800      2.6070     89.7000      2.9400
10567.0000      60.0400      2.5950     88.6500      3.0600
10567.5000      60.9400      2.5830     91.5000      3.9600
10568.0000      59.9200      2.5790     94.2000      4.6800
10568.5000      58.9000      2.5750     97.0500      6.4800
10569.0000      57.9400      2.5910     99.7500      6.6000
10569.5000      57.0400      2.6210    102.6000      5.8200
10570.0000      56.8000      2.6090    105.3000      4.7400
10570.5000      56.5000      2.5980     99.3000      2.8200
10571.0000      56.2600      2.5890     93.4500      3.1200
10571.5000      55.5400      2.5800     94.9500      3.4800
10572.0000      55.0600      2.6060     96.4500      3.7800
10572.5000      54.5200      2.6110     94.6500      4.3200
10573.0000      54.0400      2.6120     93.1500      4.3800
10573.5000      54.5800      2.6220     91.8000      4.3800
10574.0000      55.1200      2.6350     90.3000      3.7800
10574.5000      55.6600      2.6120     88.9500      3.2400
10575.0000      55.0000      2.6200     90.4500      2.7600
10575.5000      54.3400      2.6230     91.9500      3.7800
10576.0000      53.6200      2.6480     93.4500      4.5000
10576.5000      52.9600      2.6740     94.9500      5.1000
10577.0000      52.3000      2.6470     91.5000      4.0800
10577.5000      52.2400      2.6340     88.0500      2.3400
10578.0000      52.1800      2.6360     84.4500      1.0800
10578.5000      53.7400      2.6730     81.0000      0.9600
10579.0000      55.2400      2.6680     77.5500      1.2000
10579.5000      56.8000      2.6630     74.1000      1.4400
10580.0000      57.9400      2.6410     77.7000      2.0400
10580.5000      59.0200      2.6300     81.3000      2.9400
10581.0000      60.1600      2.5710     83.4000      3.7800
10581.5000      58.8400      2.5700     85.5000      5.1600
10582.0000      57.5800      2.5810     87.6000      5.7600
10582.5000      56.7400      2.5970     89.5500      3.5400
10583.0000      55.9000      2.5850     91.6500      2.8200
10583.5000      54.9400      2.6150     93.7500      2.4000
10584.0000      53.9800      2.6280     88.9500      1.5600
10584.5000      56.6800      2.6250     84.1500      1.5000
10585.0000      57.5800      2.6270     79.5000      1.2000
10585.5000      58.4200      2.6370     74.7000      1.8000
10586.0000      56.8000      2.6120     78.7500      2.2800
10586.5000      55.2400      2.5870     82.8000      2.0400
10587.0000      53.9800      2.6040     86.8500      1.7400
10587.5000      52.7200      2.6140     85.9500      1.5000
10588.0000      52.5400      2.6200     85.2000      0.9000
10588.5000      52.4200      2.6330     85.9500      0.8400
10589.0000      52.2400      2.6250     86.5500      0.9000
10589.5000      53.8000      2.6380     87.3000      0.9000
10590.0000      53.9200      2.6400     87.9000      0.9600
10590.5000      54.5800      2.6410     88.6500      1.2600
10591.0000      55.1800      2.6580     87.0000      1.5600
10591.5000      53.8600      2.6810     85.3500      2.1000
10592.0000      52.5400      2.7040     82.2000      1.6200
10592.5000      51.1600      2.6930     80.7000      1.1400
10593.0000      51.7000      2.6870     79.5000      1.0800
10593.5000      52.6600      2.6620     77.4000      1.0200
10594.0000      53.5600      2.6770     75.3000      0.9000
10594.5000      53.1400      2.6660     77.7000      0.8400
10595.0000      52.7200      2.6550     80.1000      0.7800
10595.5000      52.3000      2.6420     82.5000      0.6600
10596.0000      51.8800      2.6320     81.0000      0.6000
10596.5000      52.1200      2.6550     82.2000      0.5400
10597.0000      52.3000      2.6920     83.4000      0.4800
10597.5000      52.0600      2.6830     82.2000      0.3600
10598.0000      51.8200      2.6740     80.5500      0.3000
10598.5000      51.2800      2.6700     79.0500      0.2400
10599.0000      51.5200      2.6670     77.4000      0.2400
10599.5000      51.2800      2.6680     73.5000      0.2400
10600.0000      51.0400      2.6840     69.4500      0.1800
10600.5000      50.8000      2.6740     65.5500      0.1800
10601.0000      50.5600      2.6840     66.7500      0.2400
10601.5000      50.3200      2.7070     67.9500      0.2400
10602.0000      50.6800      2.7230     69.1500      0.3600
10602.5000      50.9800      2.6920     70.3500      0.4200
10603.0000      50.7400      2.6710     71.8500      0.4200
10603.5000      50.5000      2.6510     73.3500      0.3600
10604.0000      50.2600      2.6560     75.0000      0.3000
10604.5000      50.5000      2.6600     76.5000      0.2400
10605.0000      50.7400      2.6360     78.0000      0.2400
10605.5000      50.9800      2.6420     75.3000      0.4200
10606.0000      51.5800      2.6240     72.7500      0.6600
