~VERSION INFORMATION 
VERS.            2.0: LAS LOG ASCII STANDARD VERSION 2.0 
WRAP.             NO: ONE LINE PER DEPTH STEP 
~WELL INFORMATION 
#MNEM.UNIT     DATA                   DESCRIPTION    



















#------------------------------------------------
STRT.F      20.5000                    : 
STOP.F    17459.5000                    : 
STEP.F       0.5000                    : 
NULL.       -999.25                    : 
WELL.        R & J Sparks #1-8              : WELL NAME       
LONG.        0.0000000                      : LONGITUDE       
LAT.         0.0000000                      : LATITUDE        
STAT.        Michigan                       : STATE           
CNTY.        Gratiot                        : COUNTY          
PROS.        29739                          : PROSPECT        
API.         2105729739                     : API NUMBER      
DATE.        07-09-74                       : DATE            
OPER.        McClure Oil Co.                : OPERATOR        
~CURVE INFORMATION 
#MNEM.UNIT     API CODE               CURVE DESCRIPTION
#------------------------------------------------------
DEPT.F                                 : 1 DEPTH
DT  .usec/ft                        : 2 SONIC
RHOB.gm/cc                          : 3 DENSITY3
GR  .API UNITS                      : 4 GAMMA RAY
NPHI.%                              : 5 NEUTRON POR
~PARAMETER INFORMATION 
#MNEM.UNIT     VALUE                  DESCRIPTION
#------------------------------------------------
EKB.F         761.500                 : ELEVATION KB
~A   DEPTH           DT        RHOB          GR        NPHI
# ...
 9400.5000      52.1800      2.8380     34.8000     12.7200
 9401.0000      52.4800      2.8270     33.0000     12.1200
 9401.5000      50.8000      2.8340     30.6000     11.5200
 9402.0000      49.1200      2.7930     29.5500     11.7600
 9402.5000      49.9600      2.7820     28.3500     11.8200
 9403.0000      50.7400      2.8230     27.3000     11.9400
 9403.5000      51.5800      2.8450     31.6500     12.0000
 9404.0000      52.3600      2.9200     36.0000     10.6800
 9404.5000      50.5000      2.9290     32.4000      9.3600
 9405.0000      49.3600      2.8810     28.8000      9.1200
 9405.5000      48.2800      2.8690     27.1500      8.8800
 9406.0000      49.1800      2.8460     25.6500      9.1800
 9406.5000      50.1400      2.8380     24.0000      9.4800
 9407.0000      51.0400      2.8190     29.7000      8.5200
 9407.5000      51.9400      2.8040     34.2000      7.5600
 9408.0000      53.3800      2.8020     38.7000      6.6000
 9408.5000      52.7800      2.8170     27.6000      5.6400
 9409.0000      52.1200      2.8840     24.6000      6.0000
 9409.5000      51.5200      2.9390     21.6000      6.4200
 9410.0000      50.0200      2.9920     17.7000      6.7800
 9410.5000      48.8200      2.9740     16.5000      6.2400
 9411.0000      47.6800      2.9620     15.3000      6.5400
 9411.5000      48.5200      2.9410     14.1000      7.0800
 9412.0000      49.3600      2.9400     14.5500      7.9200
 9412.5000      50.2000      2.9650     14.8500      7.5000
 9413.0000      51.1600      2.9850     15.3000      7.1400
 9413.5000      52.0600      2.9730     15.7500      6.8400
 9414.0000      48.5800      2.9620     16.0500      7.2600
 9414.5000      47.6800      2.9320     16.5000      7.6200
 9415.0000      47.5600      2.9040     15.9000      8.1600
 9415.5000      47.5000      2.9150     15.3000      9.0600
 9416.0000      47.3800      2.8950     18.6000     10.9800
 9416.5000      47.3200      2.8620     19.3500     12.1200
 9417.0000      47.2000      2.8420     21.6000     13.2600
 9417.5000      48.8200      2.8250     24.9000     14.2200
 9418.0000      50.3800      2.7800     30.3000     14.7600
 9418.5000      50.9800      2.7490     32.7000     13.3200
 9419.0000      52.5400      2.7580     35.1000     11.8800
 9419.5000      51.2800      2.8200     37.8000     10.8000
 9420.0000      50.0200      2.8800     42.6000      9.4200
 9420.5000      48.8200      2.9090     36.3000      9.4200
 9421.0000      47.5600      2.9190     28.5000      9.2400
 9421.5000      47.7400      2.8670     23.1000      8.3400
 9422.0000      48.7600      2.8600     23.8500      7.7400
 9422.5000      48.8200      2.9170     24.7500      8.8200
 9423.0000      48.9400      2.9200     25.5000      9.7800
 9423.5000      49.0000      2.8820     24.3000     10.7400
 9424.0000      48.5800      2.8640     23.1000     11.7000
 9424.5000      48.2200      2.8970     21.9000     13.0800
 9425.0000      47.8000      2.9240     24.9000     15.2400
 9425.5000      47.3800      2.9140     27.9000     16.0200
 9426.0000      47.0200      2.8760     22.8000     15.3600
 9426.5000      46.6000      2.8450     21.4500     14.9400
 9427.0000      46.6600      2.8320     20.2500     15.3000
 9427.5000      46.4800      2.8410     18.9000     15.6600
 9428.0000      46.5400      2.8170     20.2500     16.4400
 9428.5000      46.7800      2.7770     21.6000     16.5600
 9429.0000      50.2600      2.7200     25.0500     16.6800
 9429.5000      54.1000      2.7080     34.5000     14.7600
 9430.0000      54.2200      2.7590     44.1000     14.5200
 9430.5000      56.2600      2.7880     54.1500     11.9400
 9431.0000      57.6400      2.8170     67.6500     10.8000
 9431.5000      59.0200      2.8260     67.0500     10.3800
 9432.0000      54.3400      2.8940     63.1500     10.0200
 9432.5000      53.0200      2.9050     58.6500      9.2400
 9433.0000      51.7000      2.9280     49.3500      8.5200
 9433.5000      50.7400      2.9450     34.8000      7.8600
 9434.0000      49.7800      2.9420     28.8000      7.0200
 9434.5000      48.5200      2.9410     25.8000      8.4600
 9435.0000      48.7600      2.9400     22.8000      8.5200
 9435.5000      49.0600      2.9450     26.4000      8.5800
 9436.0000      49.3000      2.9160     27.6000      8.6400
 9436.5000      49.3600      2.9070     28.8000      8.6400
 9437.0000      49.3600      2.9340     30.0000      8.5200
 9437.5000      49.3600      2.9180     28.2000      9.0000
 9438.0000      49.4200      2.9080     26.4000      9.4800
 9438.5000      49.4200      2.8870     24.7500     10.5600
 9439.0000      49.4200      2.8730     23.1000     11.5800
 9439.5000      49.7200      2.9010     24.9000     10.6200
 9440.0000      50.0200      2.8710     26.7000      9.7200
 9440.5000      50.3200      2.8970     27.9000      9.2400
 9441.0000      50.6200      2.8900     29.1000      8.7600
 9441.5000      50.9200      2.9070     30.3000      8.8200
 9442.0000      50.3800      2.9160     28.9500      9.0600
 9442.5000      49.7800      2.9260     27.6000      9.5400
 9443.0000      49.2400      2.9180     25.2000      9.8400
 9443.5000      48.7000      2.9020     22.8000     10.5600
 9444.0000      48.7600      2.9210     21.7500     10.8000
 9444.5000      48.8200      2.9040     20.7000     11.5200
 9445.0000      48.8800      2.8770     19.6500     12.0600
 9445.5000      48.8800      2.8670     18.6000     11.9400
 9446.0000      48.9400      2.8240     20.2500     12.3000
 9446.5000      50.3200      2.7960     21.7500     12.6000
 9447.0000      50.9200      2.7720     23.4000     13.3200
 9447.5000      51.7600      2.7550     26.7000     14.2800
 9448.0000      52.9000      2.7390     30.0000     14.7600
 9448.5000      53.5600      2.7200     33.3000     15.0600
 9449.0000      54.1600      2.7040     36.6000     15.3600
 9449.5000      54.8200      2.7530     37.3500     14.5800
 9450.0000      52.7800      2.8270     38.2500     12.9000
 9450.5000      50.8000      2.8760     39.0000     10.9200
 9451.0000      49.9600      2.9130     37.2000      8.8800
 9451.5000      49.1800      2.9520     35.4000      8.7600
 9452.0000      47.5000      2.9720     27.3000      9.2400
 9452.5000      47.7400      2.9550     22.8000      9.6600
 9453.0000      48.0400      2.9410     20.4000     10.8000
 9453.5000      48.2800      2.9270     18.0000     10.9200
 9454.0000      48.5200      2.9160     18.6000     11.4600
 9454.5000      48.3400      2.9260     19.2000     12.0000
 9455.0000      48.2200      2.8950     19.8000     12.2400
 9455.5000      48.0400      2.8810     20.5500     12.4200
 9456.0000      47.9200      2.8480     21.1500     13.7400
 9456.5000      48.7000      2.8240     21.9000     13.5600
 9457.0000      49.4200      2.8520     30.6000     13.3200
 9457.5000      49.8400      2.8620     35.4000     13.1400
 9458.0000      50.2600      2.8730     40.2000     12.0000
 9458.5000      50.6200      2.8700     38.4000     10.8000
 9459.0000      51.0400      2.9000     36.6000      9.7800
 9459.5000      47.8000      2.9290     34.8000      8.7000
 9460.0000      47.5000      2.9580     28.8000      7.6800
 9460.5000      47.2600      2.9430     24.7500      8.5200
 9461.0000      46.9600      2.8900     20.8500      8.1000
 9461.5000      46.7200      2.8720     16.8000      8.7600
 9462.0000      46.9600      2.8610     17.4000      9.6000
 9462.5000      47.2000      2.8580     17.8500     10.6800
 9463.0000      47.4400      2.8450     18.4500     10.8000
 9463.5000      47.6800      2.8100     18.9000     12.0000
 9464.0000      48.5800      2.8020     22.3500     14.2200
 9464.5000      49.4800      2.7950     25.6500     14.5800
 9465.0000      50.1400      2.7740     29.1000     15.0600
 9465.5000      50.8600      2.7650     34.2000     14.7000
 9466.0000      51.5200      2.7890     39.3000     14.4000
 9466.5000      51.1000      2.7660     45.0000     13.9200
 9467.0000      50.6800      2.8070     45.4500     13.4400
