~VERSION INFORMATION 
VERS.            2.0: LAS LOG ASCII STANDARD VERSION 2.0 
WRAP.             NO: ONE LINE PER DEPTH STEP 
~WELL INFORMATION 
#MNEM.UNIT     DATA                   DESCRIPTION    



















#------------------------------------------------
STRT.F      20.5000                    : 
STOP.F    17459.5000                    : 
STEP.F       0.5000                    : 
NULL.       -999.25                    : 
WELL.        R & J Sparks #1-8              : WELL NAME       
LONG.        0.0000000                      : LONGITUDE       
LAT.         0.0000000                      : LATITUDE        
STAT.        Michigan                       : STATE           
CNTY.        Gratiot                        : COUNTY          
PROS.        29739                          : PROSPECT        
API.         2105729739                     : API NUMBER      
DATE.        07-09-74                       : DATE            
OPER.        McClure Oil Co.                : OPERATOR        
~CURVE INFORMATION 
#MNEM.UNIT     API CODE               CURVE DESCRIPTION
#------------------------------------------------------
DEPT.F                                 : 1 DEPTH
DT  .usec/ft                        : 2 SONIC
RHOB.gm/cc                          : 3 DENSITY3
GR  .API UNITS                      : 4 GAMMA RAY
NPHI.%                              : 5 NEUTRON POR
~PARAMETER INFORMATION 
#MNEM.UNIT     VALUE                  DESCRIPTION
#------------------------------------------------
EKB.F         761.500                 : ELEVATION KB
~A   DEPTH           DT        RHOB          GR        NPHI
# ...
12817.5000      62.7600      2.5280    112.6500   -999.2500
12818.0000      62.7600      2.5070    111.0000   -999.2500
12818.5000      62.7200      2.4710    108.9000   -999.2500
12819.0000      62.7200      2.4700    108.3000   -999.2500
12819.5000      62.6800      2.4660    108.1500   -999.2500
12820.0000      62.6800      2.4500    108.1500   -999.2500
12820.5000      62.6000      2.4670    115.6500   -999.2500
12821.0000      62.5200      2.4830    113.2500   -999.2500
12821.5000      62.4800      2.4980    111.0000   -999.2500
12822.0000      62.2800      2.4820    109.8000   -999.2500
12822.5000      62.0800      2.4830    108.1500   -999.2500
12823.0000      61.0800      2.4540    107.7000   -999.2500
12823.5000      59.9600      2.4230    107.4000   -999.2500
12824.0000      58.8400      2.4550    106.9500   -999.2500
12824.5000      57.7200      2.4600    106.3500   -999.2500
12825.0000      59.6800      2.4690    101.2500   -999.2500
12825.5000      60.4400      2.4780     96.3000   -999.2500
12826.0000      61.2000      2.4690     88.3500   -999.2500
12826.5000      61.4800      2.4840     82.6500   -999.2500
12827.0000      61.5600      2.5000     76.9500   -999.2500
12827.5000      61.8000      2.5350     87.1500   -999.2500
12828.0000      62.4800      2.5170     97.2000   -999.2500
12828.5000      63.7200      2.4980    107.4000   -999.2500
12829.0000      62.9600      2.4170    110.4000   -999.2500
12829.5000      62.2000      2.4080    113.5500   -999.2500
12830.0000      61.4400      2.4000    116.5500   -999.2500
12830.5000      61.4400      2.4220    112.9500   -999.2500
12831.0000      61.4400      2.4850    109.5000   -999.2500
12831.5000      61.3600      2.5280    104.1000   -999.2500
12832.0000      61.2800      2.5290     99.7500   -999.2500
12832.5000      61.2000      2.5300    103.2000   -999.2500
12833.0000      59.9600      2.5300    106.5000   -999.2500
12833.5000      59.4400      2.5450    109.0500   -999.2500
12834.0000      58.8800      2.5650    111.6000   -999.2500
12834.5000      58.3600      2.5530    107.7000   -999.2500
12835.0000      57.8400      2.5040    103.6500   -999.2500
12835.5000      57.8000      2.4960     99.7500   -999.2500
12836.0000      57.8000      2.5090     96.4500   -999.2500
12836.5000      56.9200      2.5220     93.1500   -999.2500
12837.0000      57.0000      2.5260     89.8500   -999.2500
12837.5000      58.5200      2.5450     88.2000   -999.2500
12838.0000      60.0400      2.5400     86.5500   -999.2500
12838.5000      60.5600      2.5350     84.9000   -999.2500
12839.0000      61.0800      2.5380     88.0500   -999.2500
12839.5000      61.6000      2.5090     91.0500   -999.2500
12840.0000      61.0800      2.5080     94.2000   -999.2500
12840.5000      60.5600      2.5080     97.2000   -999.2500
12841.0000      59.8400      2.5100    107.2500   -999.2500
12841.5000      59.8000      2.5440    106.9500   -999.2500
12842.0000      58.7600      2.6050    103.6500   -999.2500
12842.5000      57.7600      2.6120    100.5000   -999.2500
12843.0000      57.2800      2.6430     96.9000   -999.2500
12843.5000      56.8000      2.6350     93.4500   -999.2500
12844.0000      56.3600      2.6520     92.1000   -999.2500
12844.5000      56.5200      2.6830     90.9000   -999.2500
12845.0000      56.6000      2.7140     89.4000   -999.2500
12845.5000      56.6400      2.7090     88.0500   -999.2500
12846.0000      56.2000      2.7040     86.5500   -999.2500
12846.5000      56.4800      2.7060     82.9500   -999.2500
12847.0000      56.7200      2.7180     83.8500   -999.2500
12847.5000      57.0000      2.7290     84.7500   -999.2500
12848.0000      57.2400      2.7030     87.7500   -999.2500
12848.5000      57.4400      2.6660     82.2000   -999.2500
12849.0000      57.6800      2.6710     84.0000   -999.2500
12849.5000      58.1200      2.6780     85.9500   -999.2500
12850.0000      58.4400      2.7010     87.7500   -999.2500
12850.5000      58.7600      2.7210     89.5500   -999.2500
12851.0000      58.4400      2.6730    102.4500   -999.2500
12851.5000      57.6000      2.6450     91.3500   -999.2500
12852.0000      59.1600      2.6030     89.4000   -999.2500
12852.5000      60.0800      2.6010     87.4500   -999.2500
12853.0000      61.4400      2.5870     89.5500   -999.2500
12853.5000      61.8400      2.5740     93.1500   -999.2500
12854.0000      62.2000      2.5930     95.8500   -999.2500
12854.5000      61.8000      2.5690    100.8000   -999.2500
12855.0000      61.3600      2.5450    105.0000   -999.2500
12855.5000      60.9600      2.5640    109.0500   -999.2500
12856.0000      61.0000      2.5980    110.2500   -999.2500
12856.5000      61.0000      2.6040    110.8500   -999.2500
12857.0000      60.9600      2.6090    111.4500   -999.2500
12857.5000      60.9200      2.6020    109.6500   -999.2500
12858.0000      60.8400      2.5960    107.7000   -999.2500
12858.5000      60.8000      2.6030    102.0000   -999.2500
12859.0000      60.7600      2.6070     99.4500   -999.2500
12859.5000      60.5600      2.6110    100.0500   -999.2500
12860.0000      60.3600      2.5910    100.6500   -999.2500
12860.5000      59.4800      2.5830    105.6000   -999.2500
12861.0000      59.7600      2.5750    103.8000   -999.2500
12861.5000      60.0800      2.5820    101.8500   -999.2500
12862.0000      60.3600      2.5890    100.0500   -999.2500
12862.5000      60.6400      2.5810     95.4000   -999.2500
12863.0000      60.9600      2.5850     99.1500   -999.2500
12863.5000      61.2400      2.5880    102.7500   -999.2500
12864.0000      61.5600      2.6030    105.9000   -999.2500
12864.5000      61.8800      2.5860    108.9000   -999.2500
12865.0000      58.8000      2.5630    107.5500   -999.2500
12865.5000      58.2400      2.5390    105.9000   -999.2500
12866.0000      57.6800      2.5250    104.2500   -999.2500
12866.5000      58.1200      2.5110     98.4000   -999.2500
12867.0000      58.4000      2.5290     88.3500   -999.2500
12867.5000      58.5200      2.5470     84.0000   -999.2500
12868.0000      58.6400      2.5580     79.6500   -999.2500
12868.5000      58.7600      2.5860     86.8500   -999.2500
12869.0000      59.2000      2.5930     92.4000   -999.2500
12869.5000      59.2400      2.5890     97.9500   -999.2500
12870.0000      59.8000      2.5910    100.3500   -999.2500
12870.5000      60.3200      2.5920    102.6000   -999.2500
12871.0000      60.5200      2.5540    108.1500   -999.2500
12871.5000      61.2000      2.5230    106.8000   -999.2500
12872.0000      61.1600      2.5370    105.6000   -999.2500
12872.5000      61.0800      2.5510    106.3500   -999.2500
12873.0000      61.0400      2.5620    107.1000   -999.2500
12873.5000      60.9600      2.5540    110.2500   -999.2500
12874.0000      60.9200      2.5530    107.1000   -999.2500
12874.5000      60.5600      2.5300    101.5500   -999.2500
12875.0000      60.7200      2.5370     99.3000   -999.2500
12875.5000      60.8800      2.5480     97.0500   -999.2500
12876.0000      61.0800      2.5590     97.5000   -999.2500
12876.5000      61.2800      2.5460     97.9500   -999.2500
12877.0000      60.9600      2.5220     98.2500   -999.2500
12877.5000      60.6400      2.5310     98.7000   -999.2500
12878.0000      60.3200      2.5390    102.4500   -999.2500
12878.5000      59.7200      2.5350    101.2500   -999.2500
12879.0000      59.8000      2.5310     99.9000   -999.2500
12879.5000      60.2800      2.5470     98.7000   -999.2500
12880.0000      61.4400      2.5700     96.0000   -999.2500
12880.5000      61.9600      2.5510    105.7500   -999.2500
12881.0000      61.8000      2.5390    107.1000   -999.2500
12881.5000      61.6800      2.5270    108.4500   -999.2500
12882.0000      61.5200      2.5080    109.5000   -999.2500
12882.5000      61.4000      2.5550    110.5500   -999.2500
12883.0000      60.5600      2.5450    108.7500   -999.2500
12883.5000      59.7200      2.5610    102.9000   -999.2500
12884.0000      58.4400      2.5440    100.8000   -999.2500
